{"features":[{"type":"Feature","geometry":{"type":"Point","coordinates":[104.773588114,1.62136814174]},"properties":{"vesselName":"SHAN CHI"}},{"type":"Feature","geometry":{"type":"Point","coordinates":[104.638684077,1.91276908636]},"properties":{"vesselName":"APOLLO"}},{"type":"Feature","geometry":{"type":"Point","coordinates":[104.248083855,1.30591686344]},"properties":{"vesselName":"PACIFIC JADE"}},{"type":"Feature","geometry":{"type":"Point","coordinates":[103.699515552,1.28661169177]},"properties":{"vesselName":"KANG HUA WAN"}},{"type":"Feature","geometry":{"type":"Point","coordinates":[103.354800546,1.32998336093]},"properties":{"vesselName":"EM ZENITH"}},{"type":"Feature","geometry":{"type":"Point","coordinates":[103.740382223,1.27196669239]},"properties":{"vesselName":"EAGLE ASIA 08"}},{"type":"Feature","geometry":{"type":"Point","coordinates":[103.913095558,1.26250169243]},"properties":{"vesselName":"SEA RAKER"}},{"type":"Feature","geometry":{"type":"Point","coordinates":[104.219730859,1.28691824916]},"properties":{"vesselName":"FSL KELANG"}},{"type":"Feature","geometry":{"type":"Point","coordinates":[103.581898887,1.26837169253]},"properties":{"vesselName":"NEW INTEGRITY"}},{"type":"Feature","geometry":{"type":"Point","coordinates":[103.743383889,1.29228335994]},"properties":{"vesselName":"KIRANA QUINTYA"}},{"type":"Feature","geometry":{"type":"Point","coordinates":[104.212700311,1.29287268096]},"properties":{"vesselName":"BELAWAN"}},{"type":"Feature","geometry":{"type":"Point","coordinates":[103.77053056,1.28440669209]},"properties":{"vesselName":"MAJU DAYA 63"}},{"type":"Feature","geometry":{"type":"Point","coordinates":[103.560707219,1.22607835923]},"properties":{"vesselName":"PHOENIX M"}},{"type":"Feature","geometry":{"type":"Point","coordinates":[104.076307234,1.29391502584]},"properties":{"vesselName":"AZURE NOVA"}},{"type":"Feature","geometry":{"type":"Point","coordinates":[103.983347225,1.15054836012]},"properties":{"vesselName":"ELANG TIRTA I"}},{"type":"Feature","geometry":{"type":"Point","coordinates":[104.065938679,1.23103953538]},"properties":{"vesselName":"SOL 1011"}},{"type":"Feature","geometry":{"type":"Point","coordinates":[104.484997801,1.52111923979]},"properties":{"vesselName":"OTSL ATHENA"}},{"type":"Feature","geometry":{"type":"Point","coordinates":[103.934068895,1.09072335054]},"properties":{"vesselName":"RISKITA"}},{"type":"Feature","geometry":{"type":"Point","coordinates":[104.053943898,1.13304836033]},"properties":{"vesselName":"MDM EXPRESS"}},{"type":"Feature","geometry":{"type":"Point","coordinates":[103.905654105,1.19520120626]},"properties":{"vesselName":"MEGA DAYA 37"}},{"type":"Feature","geometry":{"type":"Point","coordinates":[103.916884526,1.43163584407]},"properties":{"vesselName":"JUNO PACIFIC"}},{"type":"Feature","geometry":{"type":"Point","coordinates":[104.134105555,1.30575835771]},"properties":{"vesselName":"PACIFIC COBALT"}},{"type":"Feature","geometry":{"type":"Point","coordinates":[103.973860563,1.17533835969]},"properties":{"vesselName":"NUSANTARA EXPLORER"}},{"type":"Feature","geometry":{"type":"Point","coordinates":[103.940963897,1.00930169426]},"properties":{"vesselName":"TB PIS 02"}},{"type":"Feature","geometry":{"type":"Point","coordinates":[103.911493716,1.42833088368]},"properties":{"vesselName":"OCEAN DRAGON 6"}},{"type":"Feature","geometry":{"type":"Point","coordinates":[104.525717835,1.49368942838]},"properties":{"vesselName":"YM COOPERATION"}},{"type":"Feature","geometry":{"type":"Point","coordinates":[103.948648776,1.29012451162]},"properties":{"vesselName":"MOUTON"}},{"type":"Feature","geometry":{"type":"Point","coordinates":[104.079559456,1.32303097887]},"properties":{"vesselName":"OCEANA 13"}},{"type":"Feature","geometry":{"type":"Point","coordinates":[103.98807469,1.4226056162]},"properties":{"vesselName":"DOLPHIN 01"}},{"type":"Feature","geometry":{"type":"Point","coordinates":[104.024537218,1.50388670055]},"properties":{"vesselName":"SAPURA 2000"}},{"type":"Feature","geometry":{"type":"Point","coordinates":[103.94494056,1.00812170095]},"properties":{"vesselName":"MV DOLPHIN 02"}},{"type":"Feature","geometry":{"type":"Point","coordinates":[104.084232066,1.24925943181]},"properties":{"vesselName":"CITRA LEGACY 3"}},{"type":"Feature","geometry":{"type":"Point","coordinates":[103.84342556,1.24577335955]},"properties":{"vesselName":"DIVA NOVA"}},{"type":"Feature","geometry":{"type":"Point","coordinates":[103.398605575,1.09021835271]},"properties":{"vesselName":"BINA MARINE 61"}},{"type":"Feature","geometry":{"type":"Point","coordinates":[104.373086678,1.31379000851]},"properties":{"vesselName":"KMTC YOKOHAMA"}},{"type":"Feature","geometry":{"type":"Point","coordinates":[103.840312226,1.24597669294]},"properties":{"vesselName":"ROYAL PEARL"}},{"type":"Feature","geometry":{"type":"Point","coordinates":[103.769507224,1.28506002533]},"properties":{"vesselName":"MAJU DAYA 23"}},{"type":"Feature","geometry":{"type":"Point","coordinates":[103.673707226,1.29301169143]},"properties":{"vesselName":"MMA MAJESTIC"}},{"type":"Feature","geometry":{"type":"Point","coordinates":[103.752692224,1.29631169295]},"properties":{"vesselName":"ICON ALIZA"}},{"type":"Feature","geometry":{"type":"Point","coordinates":[104.094537245,1.30317179042]},"properties":{"vesselName":"EVER FAST"}},{"type":"Feature","geometry":{"type":"Point","coordinates":[104.138673889,1.33013169193]},"properties":{"vesselName":"COOL MARLIN 23"}},{"type":"Feature","geometry":{"type":"Point","coordinates":[104.101455551,1.34261502154]},"properties":{"vesselName":"ESCOLAR"}},{"type":"Feature","geometry":{"type":"Point","coordinates":[104.586745027,1.34998941637]},"properties":{"vesselName":"DUTA AZZAM"}},{"type":"Feature","geometry":{"type":"Point","coordinates":[104.062235561,1.44307335263]},"properties":{"vesselName":"ENPRIX LEO"}},{"type":"Feature","geometry":{"type":"Point","coordinates":[103.634257225,1.34382669159]},"properties":{"vesselName":"LIBERTY 2"}},{"type":"Feature","geometry":{"type":"Point","coordinates":[103.909965558,1.2770016927]},"properties":{"vesselName":"SCARLETT"}},{"type":"Feature","geometry":{"type":"Point","coordinates":[104.171277535,1.25684672138]},"properties":{"vesselName":"MSC DILETTA"}},{"type":"Feature","geometry":{"type":"Point","coordinates":[103.590364588,0.923748604061]},"properties":{"vesselName":"MEGA DAYA 47"}},{"type":"Feature","geometry":{"type":"Point","coordinates":[103.703318894,1.29147502585]},"properties":{"vesselName":"LG ASPHALT 2"}},{"type":"Feature","geometry":{"type":"Point","coordinates":[104.092873895,1.34462836114]},"properties":{"vesselName":"FIGHTER 88"}},{"type":"Feature","geometry":{"type":"Point","coordinates":[103.907360559,1.06374669699]},"properties":{"vesselName":"ELANG TIRTA V"}},{"type":"Feature","geometry":{"type":"Point","coordinates":[103.777917225,1.22819335736]},"properties":{"vesselName":"PUSAKA PRIMA"}},{"type":"Feature","geometry":{"type":"Point","coordinates":[104.650464602,1.57934005662]},"properties":{"vesselName":"FLAG GANGOS"}},{"type":"Feature","geometry":{"type":"Point","coordinates":[103.937225564,1.01723668682]},"properties":{"vesselName":"LL DONNY"}},{"type":"Feature","geometry":{"type":"Point","coordinates":[103.935793895,1.01549336646]},"properties":{"vesselName":"LL JESSICA"}},{"type":"Feature","geometry":{"type":"Point","coordinates":[104.060865536,1.14674977693]},"properties":{"vesselName":"BATAMFAST 18"}},{"type":"Feature","geometry":{"type":"Point","coordinates":[104.157668902,0.745995014119]},"properties":{"vesselName":"LEWEK CONQUEROR"}},{"type":"Feature","geometry":{"type":"Point","coordinates":[103.61750056,1.25739002563]},"properties":{"vesselName":"ZHEN HUA 29"}},{"type":"Feature","geometry":{"type":"Point","coordinates":[103.896648895,1.07911002572]},"properties":{"vesselName":"BAHTERA AZALEA"}},{"type":"Feature","geometry":{"type":"Point","coordinates":[103.821367227,1.22190002458]},"properties":{"vesselName":"PIGEON POINT"}},{"type":"Feature","geometry":{"type":"Point","coordinates":[103.740968894,1.274060026]},"properties":{"vesselName":"EAGLE AQUAMARINE"}},{"type":"Feature","geometry":{"type":"Point","coordinates":[103.751798895,1.22024335923]},"properties":{"vesselName":"SEEKER TIDE"}},{"type":"Feature","geometry":{"type":"Point","coordinates":[104.25258055,1.34609669208]},"properties":{"vesselName":"HORAI 8"}},{"type":"Feature","geometry":{"type":"Point","coordinates":[104.110855449,1.27551662799]},"properties":{"vesselName":"AEGEAN PARADISE"}},{"type":"Feature","geometry":{"type":"Point","coordinates":[104.321368881,1.16111002857]},"properties":{"vesselName":"BAWAH FLYER"}},{"type":"Feature","geometry":{"type":"Point","coordinates":[104.31441457,1.31866576137]},"properties":{"vesselName":"NAVE ELECTRON"}},{"type":"Feature","geometry":{"type":"Point","coordinates":[103.640680552,1.27141835903]},"properties":{"vesselName":"MMA MONARCH"}},{"type":"Feature","geometry":{"type":"Point","coordinates":[103.813373893,1.22366002548]},"properties":{"vesselName":"KIRANA QUARTYA"}},{"type":"Feature","geometry":{"type":"Point","coordinates":[103.561636856,1.2342778269]},"properties":{"vesselName":"ENPRIX ASIA"}},{"type":"Feature","geometry":{"type":"Point","coordinates":[103.576097225,1.25095669242]},"properties":{"vesselName":"ENPRIX II"}},{"type":"Feature","geometry":{"type":"Point","coordinates":[103.681128884,1.30448169395]},"properties":{"vesselName":"ZHAN 102"}},{"type":"Feature","geometry":{"type":"Point","coordinates":[103.596897228,1.28560002657]},"properties":{"vesselName":"STURGEON"}},{"type":"Feature","geometry":{"type":"Point","coordinates":[104.069141263,1.26634950027]},"properties":{"vesselName":"METRO MISTRAL"}},{"type":"Feature","geometry":{"type":"Point","coordinates":[103.717417223,1.16390002235]},"properties":{"vesselName":"GULF HUWAYLAT"}},{"type":"Feature","geometry":{"type":"Point","coordinates":[103.812445558,1.26575002581]},"properties":{"vesselName":"VICKY"}},{"type":"Feature","geometry":{"type":"Point","coordinates":[103.75728056,1.29956669209]},"properties":{"vesselName":"BRIDGEWATER 132"}},{"type":"Feature","geometry":{"type":"Point","coordinates":[103.914613895,1.26795169252]},"properties":{"vesselName":"A LEOPARD"}},{"type":"Feature","geometry":{"type":"Point","coordinates":[103.545397216,1.36226669001]},"properties":{"vesselName":"ARCHER"}},{"type":"Feature","geometry":{"type":"Point","coordinates":[104.101110563,1.33509502535]},"properties":{"vesselName":"JM SUTERA 8"}},{"type":"Feature","geometry":{"type":"Point","coordinates":[103.779743815,1.18499519566]},"properties":{"vesselName":"OM BORNEO"}},{"type":"Feature","geometry":{"type":"Point","coordinates":[104.120937227,1.33833335727]},"properties":{"vesselName":"JUPITER"}},{"type":"Feature","geometry":{"type":"Point","coordinates":[103.682953894,1.30443669122]},"properties":{"vesselName":"EGS SURVEYOR II"}},{"type":"Feature","geometry":{"type":"Point","coordinates":[103.79879707,1.25012814542]},"properties":{"vesselName":"PUSAKA ABADI"}},{"type":"Feature","geometry":{"type":"Point","coordinates":[104.097980565,1.34318169631]},"properties":{"vesselName":"NOVA"}},{"type":"Feature","geometry":{"type":"Point","coordinates":[104.063905566,1.21135169197]},"properties":{"vesselName":"CMA CGM NIAGARA"}},{"type":"Feature","geometry":{"type":"Point","coordinates":[103.539312228,1.38173502877]},"properties":{"vesselName":"DUANGTALAY 8"}},{"type":"Feature","geometry":{"type":"Point","coordinates":[103.924934496,1.43123809775]},"properties":{"vesselName":"KEJORA LEKIR"}},{"type":"Feature","geometry":{"type":"Point","coordinates":[103.899647228,1.07304002219]},"properties":{"vesselName":"ENA MONARCH"}},{"type":"Feature","geometry":{"type":"Point","coordinates":[103.547115142,1.35662710074]},"properties":{"vesselName":"UTE"}},{"type":"Feature","geometry":{"type":"Point","coordinates":[103.904316412,1.42940701083]},"properties":{"vesselName":"KSP VIRGO"}},{"type":"Feature","geometry":{"type":"Point","coordinates":[103.547760548,1.35385335676]},"properties":{"vesselName":"MAERSK CAMDEN"}},{"type":"Feature","geometry":{"type":"Point","coordinates":[104.111462223,1.34365502451]},"properties":{"vesselName":"AMOS SATU"}},{"type":"Feature","geometry":{"type":"Point","coordinates":[103.961883892,1.15191835789]},"properties":{"vesselName":"BW FAITH"}},{"type":"Feature","geometry":{"type":"Point","coordinates":[104.104657224,1.32712669377]},"properties":{"vesselName":"PACIFIC INTEGRITY"}},{"type":"Feature","geometry":{"type":"Point","coordinates":[103.84107556,1.24783835873]},"properties":{"vesselName":"BRAVE"}},{"type":"Feature","geometry":{"type":"Point","coordinates":[103.87540556,1.25242502629]},"properties":{"vesselName":"KALTIM EXPRESS"}},{"type":"Feature","geometry":{"type":"Point","coordinates":[104.09822222,1.33141335946]},"properties":{"vesselName":"EAGLE ASIA 07"}},{"type":"Feature","geometry":{"type":"Point","coordinates":[104.082763438,1.23980313904]},"properties":{"vesselName":"PANCARAN PROSPERITY"}},{"type":"Feature","geometry":{"type":"Point","coordinates":[103.978980563,1.15745169054]},"properties":{"vesselName":"LOGINDO ENERGY"}},{"type":"Feature","geometry":{"type":"Point","coordinates":[103.910278894,1.03835835187]},"properties":{"vesselName":"SWIBER RUBY"}},{"type":"Feature","geometry":{"type":"Point","coordinates":[103.652085085,1.38986563291]},"properties":{"vesselName":"PUTRI ANGGRENI 03"}},{"type":"Feature","geometry":{"type":"Point","coordinates":[104.241972057,1.29682696547]},"properties":{"vesselName":"TENSHO"}},{"type":"Feature","geometry":{"type":"Point","coordinates":[104.671641919,1.7629301012]},"properties":{"vesselName":"ELVA"}},{"type":"Feature","geometry":{"type":"Point","coordinates":[104.017743893,1.29308169341]},"properties":{"vesselName":"LILA CHENNAI"}},{"type":"Feature","geometry":{"type":"Point","coordinates":[103.900527228,1.07269336352]},"properties":{"vesselName":"ENA PHOENIX"}},{"type":"Feature","geometry":{"type":"Point","coordinates":[103.952695563,1.27613835961]},"properties":{"vesselName":"RIVERA"}},{"type":"Feature","geometry":{"type":"Point","coordinates":[103.907340561,1.43321835149]},"properties":{"vesselName":"KEJORA TUAH 4"}},{"type":"Feature","geometry":{"type":"Point","coordinates":[104.664355915,1.58220897139]},"properties":{"vesselName":"URAGA PRINCESS"}},{"type":"Feature","geometry":{"type":"Point","coordinates":[103.766083891,1.23921669168]},"properties":{"vesselName":"SIENNA"}},{"type":"Feature","geometry":{"type":"Point","coordinates":[103.799792738,1.24081846842]},"properties":{"vesselName":"ORKIM PEARL"}},{"type":"Feature","geometry":{"type":"Point","coordinates":[103.842302226,1.24961669205]},"properties":{"vesselName":"FLO"}},{"type":"Feature","geometry":{"type":"Point","coordinates":[103.891360559,1.09776001886]},"properties":{"vesselName":"SEALINK 161"}},{"type":"Feature","geometry":{"type":"Point","coordinates":[104.173547309,1.29812949481]},"properties":{"vesselName":"MANYPLUS 1"}},{"type":"Feature","geometry":{"type":"Point","coordinates":[104.656002306,1.49533025417]},"properties":{"vesselName":"SIEM SYMPHONY"}},{"type":"Feature","geometry":{"type":"Point","coordinates":[104.006396203,1.29703653756]},"properties":{"vesselName":"ORKIM DIAMOND"}},{"type":"Feature","geometry":{"type":"Point","coordinates":[103.901130559,1.09569503366]},"properties":{"vesselName":"HIGHLINE 61"}},{"type":"Feature","geometry":{"type":"Point","coordinates":[103.576352225,1.2510216921]},"properties":{"vesselName":"ACE BREAM"}},{"type":"Feature","geometry":{"type":"Point","coordinates":[103.567086667,1.24413208513]},"properties":{"vesselName":"ACE OSCAR"}},{"type":"Feature","geometry":{"type":"Point","coordinates":[104.105055561,1.33475502415]},"properties":{"vesselName":"MTT SARIKEI"}},{"type":"Feature","geometry":{"type":"Point","coordinates":[103.881800559,1.26321335911]},"properties":{"vesselName":"NEW KEY"}},{"type":"Feature","geometry":{"type":"Point","coordinates":[103.707137533,1.18396255058]},"properties":{"vesselName":"JIN HAI LAN"}},{"type":"Feature","geometry":{"type":"Point","coordinates":[103.892292226,1.43573002066]},"properties":{"vesselName":"STEPHANIA K"}},{"type":"Feature","geometry":{"type":"Point","coordinates":[103.543418883,1.36839002629]},"properties":{"vesselName":"MTT SAPANGAR"}},{"type":"Feature","geometry":{"type":"Point","coordinates":[104.143677218,1.30963835945]},"properties":{"vesselName":"ORKIM FORTITUDE"}},{"type":"Feature","geometry":{"type":"Point","coordinates":[103.810712227,1.22280502693]},"properties":{"vesselName":"DING HENG 28"}},{"type":"Feature","geometry":{"type":"Point","coordinates":[103.09484085,1.47309065105]},"properties":{"vesselName":"ULSAN"}},{"type":"Feature","geometry":{"type":"Point","coordinates":[103.794943895,1.23625502509]},"properties":{"vesselName":"NAUTICA PONTIAN 2"}},{"type":"Feature","geometry":{"type":"Point","coordinates":[103.726615562,1.30783669373]},"properties":{"vesselName":"TIPSY GYPSY"}},{"type":"Feature","geometry":{"type":"Point","coordinates":[103.736022228,1.23714169243]},"properties":{"vesselName":"CL AGATHA CHRISTIE"}},{"type":"Feature","geometry":{"type":"Point","coordinates":[103.840637226,1.24716502686]},"properties":{"vesselName":"HONEST MISTAKE"}},{"type":"Feature","geometry":{"type":"Point","coordinates":[104.047168422,1.36207041186]},"properties":{"vesselName":"PILOT SRI PERKASA 02"}},{"type":"Feature","geometry":{"type":"Point","coordinates":[103.580700554,1.27427502556]},"properties":{"vesselName":"WAN LIMA"}},{"type":"Feature","geometry":{"type":"Point","coordinates":[103.93329556,1.11548003255]},"properties":{"vesselName":"RM ARMADA"}},{"type":"Feature","geometry":{"type":"Point","coordinates":[103.651812222,1.29990669206]},"properties":{"vesselName":"GLORY HONOR"}},{"type":"Feature","geometry":{"type":"Point","coordinates":[103.839862226,1.24244835994]},"properties":{"vesselName":"DEPINX1475"}},{"type":"Feature","geometry":{"type":"Point","coordinates":[104.189377216,1.04557502948]},"properties":{"vesselName":"WIJAYA KUSUMA 3"}},{"type":"Feature","geometry":{"type":"Point","coordinates":[103.908112538,1.19946607521]},"properties":{"vesselName":"FALCON DELAPAN"}},{"type":"Feature","geometry":{"type":"Point","coordinates":[103.598307224,1.28179335958]},"properties":{"vesselName":"BERA"}},{"type":"Feature","geometry":{"type":"Point","coordinates":[104.024525378,1.50375488058]},"properties":{"vesselName":"STRAITS 3"}},{"type":"Feature","geometry":{"type":"Point","coordinates":[104.062312228,1.44313668579]},"properties":{"vesselName":"LIN 99"}},{"type":"Feature","geometry":{"type":"Point","coordinates":[103.84091056,1.24308669194]},"properties":{"vesselName":"OHANA TIME"}},{"type":"Feature","geometry":{"type":"Point","coordinates":[103.765708294,1.28067679046]},"properties":{"vesselName":"SINAR SANUR"}},{"type":"Feature","geometry":{"type":"Point","coordinates":[104.359767283,1.30932807096]},"properties":{"vesselName":"SEN 2008"}},{"type":"Feature","geometry":{"type":"Point","coordinates":[103.840468893,1.24355002518]},"properties":{"vesselName":"TRIUMPH THROUGH"}},{"type":"Feature","geometry":{"type":"Point","coordinates":[103.681580567,1.30410502368]},"properties":{"vesselName":"HAWA"}},{"type":"Feature","geometry":{"type":"Point","coordinates":[103.841035559,1.24335835961]},"properties":{"vesselName":"SY FOREVER YANG"}},{"type":"Feature","geometry":{"type":"Point","coordinates":[103.553105844,1.25814956074]},"properties":{"vesselName":"GRAND ACE9"}},{"type":"Feature","geometry":{"type":"Point","coordinates":[103.634207225,1.34263168928]},"properties":{"vesselName":"ARISE SHINE"}},{"type":"Feature","geometry":{"type":"Point","coordinates":[104.250025572,1.33722335762]},"properties":{"vesselName":"ZEVIROUS"}},{"type":"Feature","geometry":{"type":"Point","coordinates":[103.96260723,1.17092002344]},"properties":{"vesselName":"FALCON FORCE"}},{"type":"Feature","geometry":{"type":"Point","coordinates":[103.840703893,1.24319335817]},"properties":{"vesselName":"HARBOR PRISM"}},{"type":"Feature","geometry":{"type":"Point","coordinates":[103.572736754,1.2351123855]},"properties":{"vesselName":"ZOEY SATU"}},{"type":"Feature","geometry":{"type":"Point","coordinates":[103.619600559,1.25418502535]},"properties":{"vesselName":"MSC NICOLA MASTRO"}},{"type":"Feature","geometry":{"type":"Point","coordinates":[103.761825562,1.29339669287]},"properties":{"vesselName":"RAGMAN VIII"}},{"type":"Feature","geometry":{"type":"Point","coordinates":[103.811358895,1.26603669247]},"properties":{"vesselName":"MY KARIBU"}},{"type":"Feature","geometry":{"type":"Point","coordinates":[103.84116056,1.24787502599]},"properties":{"vesselName":"SMILEY AURORA"}},{"type":"Feature","geometry":{"type":"Point","coordinates":[104.118183887,1.3319533607]},"properties":{"vesselName":"ATHEN"}},{"type":"Feature","geometry":{"type":"Point","coordinates":[103.453267219,1.26083335937]},"properties":{"vesselName":"MARTINI"}},{"type":"Feature","geometry":{"type":"Point","coordinates":[104.153433894,1.3262766912]},"properties":{"vesselName":"KSP VICTORY"}},{"type":"Feature","geometry":{"type":"Point","coordinates":[104.066158856,1.34423971843]},"properties":{"vesselName":"MTT LANGKAWI"}},{"type":"Feature","geometry":{"type":"Point","coordinates":[103.756826517,1.18659788978]},"properties":{"vesselName":"GAS TESSA"}},{"type":"Feature","geometry":{"type":"Point","coordinates":[103.93091389,1.43036285156]},"properties":{"vesselName":"PANINDO 2"}},{"type":"Feature","geometry":{"type":"Point","coordinates":[103.898807224,1.27946169277]},"properties":{"vesselName":"SDM CHONGQING"}},{"type":"Feature","geometry":{"type":"Point","coordinates":[103.899636189,1.43475179951]},"properties":{"vesselName":"KSP VERONA"}},{"type":"Feature","geometry":{"type":"Point","coordinates":[103.900212225,1.43481002292]},"properties":{"vesselName":"KSP VENUS"}},{"type":"Feature","geometry":{"type":"Point","coordinates":[104.151775495,1.32168637263]},"properties":{"vesselName":"YIDA 8"}},{"type":"Feature","geometry":{"type":"Point","coordinates":[103.633375481,1.04742975077]},"properties":{"vesselName":"OM SINGAPORE"}},{"type":"Feature","geometry":{"type":"Point","coordinates":[104.139718888,1.31547836072]},"properties":{"vesselName":"ANGEL NO 11"}},{"type":"Feature","geometry":{"type":"Point","coordinates":[105.081217243,1.88148833813]},"properties":{"vesselName":"BRAVE"}},{"type":"Feature","geometry":{"type":"Point","coordinates":[103.681527235,1.3040933579]},"properties":{"vesselName":"HELENA"}},{"type":"Feature","geometry":{"type":"Point","coordinates":[104.225170551,1.3200433591]},"properties":{"vesselName":"PAOLINA COSULICH"}},{"type":"Feature","geometry":{"type":"Point","coordinates":[104.006803889,1.30001169341]},"properties":{"vesselName":"KENJI"}},{"type":"Feature","geometry":{"type":"Point","coordinates":[103.626877223,1.25434002554]},"properties":{"vesselName":"MSC MARIELLA"}},{"type":"Feature","geometry":{"type":"Point","coordinates":[103.841338893,1.24754169207]},"properties":{"vesselName":"JOZEA"}},{"type":"Feature","geometry":{"type":"Point","coordinates":[103.919420559,1.13658502214]},"properties":{"vesselName":"TOLL JADE"}},{"type":"Feature","geometry":{"type":"Point","coordinates":[103.7293911,1.3007156484]},"properties":{"vesselName":"SEA HERON"}},{"type":"Feature","geometry":{"type":"Point","coordinates":[103.728818891,1.28910669348]},"properties":{"vesselName":"HAFNIA KESTREL"}},{"type":"Feature","geometry":{"type":"Point","coordinates":[103.595993141,1.27715421054]},"properties":{"vesselName":"ASPIRE"}},{"type":"Feature","geometry":{"type":"Point","coordinates":[103.923552591,1.43101920565]},"properties":{"vesselName":"AMAN TENANG"}},{"type":"Feature","geometry":{"type":"Point","coordinates":[104.143882343,1.32958214274]},"properties":{"vesselName":"BAYU RAJAWALI"}},{"type":"Feature","geometry":{"type":"Point","coordinates":[104.212669872,1.06855473883]},"properties":{"vesselName":"BERKAT ANUGRAH 5"}},{"type":"Feature","geometry":{"type":"Point","coordinates":[104.0993939,1.33948335864]},"properties":{"vesselName":"SEA FORTUNA"}},{"type":"Feature","geometry":{"type":"Point","coordinates":[103.931900683,1.17727366602]},"properties":{"vesselName":"SC WARRIOR L"}},{"type":"Feature","geometry":{"type":"Point","coordinates":[103.97672005,1.39716202731]},"properties":{"vesselName":"BRIO"}},{"type":"Feature","geometry":{"type":"Point","coordinates":[103.576359645,1.25087898874]},"properties":{"vesselName":"SA PRIDE"}},{"type":"Feature","geometry":{"type":"Point","coordinates":[103.841348893,1.24719335917]},"properties":{"vesselName":"AYLA"}},{"type":"Feature","geometry":{"type":"Point","coordinates":[103.84092056,1.24368335883]},"properties":{"vesselName":"BOHAI"}},{"type":"Feature","geometry":{"type":"Point","coordinates":[104.128320557,1.40621002984]},"properties":{"vesselName":"SHUNYI"}},{"type":"Feature","geometry":{"type":"Point","coordinates":[103.420959335,1.28691270768]},"properties":{"vesselName":"SA UNITY"}},{"type":"Feature","geometry":{"type":"Point","coordinates":[103.684963895,1.1879433561]},"properties":{"vesselName":"ARREBOL"}},{"type":"Feature","geometry":{"type":"Point","coordinates":[103.95579889,1.15252668843]},"properties":{"vesselName":"SPGM 03"}},{"type":"Feature","geometry":{"type":"Point","coordinates":[103.913241418,1.24779232009]},"properties":{"vesselName":"CMA CGM FIORDLAND"}},{"type":"Feature","geometry":{"type":"Point","coordinates":[103.657358891,1.41847669257]},"properties":{"vesselName":"NOMAD 101"}},{"type":"Feature","geometry":{"type":"Point","coordinates":[103.797356093,1.23366276628]},"properties":{"vesselName":"LE INFINITY"}},{"type":"Feature","geometry":{"type":"Point","coordinates":[104.519475071,1.49771254183]},"properties":{"vesselName":"YONG CHANG CHANG HANG"}},{"type":"Feature","geometry":{"type":"Point","coordinates":[103.563379229,1.26967958744]},"properties":{"vesselName":"SAKURA SHUCHI"}},{"type":"Feature","geometry":{"type":"Point","coordinates":[103.909053894,1.09636835683]},"properties":{"vesselName":"SUMBER BLESSING"}},{"type":"Feature","geometry":{"type":"Point","coordinates":[103.596098891,1.28253835957]},"properties":{"vesselName":"RM PHOENIX"}},{"type":"Feature","geometry":{"type":"Point","coordinates":[103.95349723,1.28829002552]},"properties":{"vesselName":"ORKIM CITRINE"}},{"type":"Feature","geometry":{"type":"Point","coordinates":[103.871813893,1.25223335929]},"properties":{"vesselName":"QL INFINITY"}},{"type":"Feature","geometry":{"type":"Point","coordinates":[104.194308877,1.11591835047]},"properties":{"vesselName":"SUCCESS PEGASUS XXXVI"}},{"type":"Feature","geometry":{"type":"Point","coordinates":[103.840742226,1.24314669165]},"properties":{"vesselName":"CALEB"}},{"type":"Feature","geometry":{"type":"Point","coordinates":[103.746255907,1.22009803212]},"properties":{"vesselName":"EASTERN URSINIA"}},{"type":"Feature","geometry":{"type":"Point","coordinates":[103.642773899,1.25411335893]},"properties":{"vesselName":"MSC BANJUL IV"}},{"type":"Feature","geometry":{"type":"Point","coordinates":[104.0949386,1.34638250735]},"properties":{"vesselName":"NAGA SATU"}},{"type":"Feature","geometry":{"type":"Point","coordinates":[103.407816444,1.28065753677]},"properties":{"vesselName":"AURORA I"}},{"type":"Feature","geometry":{"type":"Point","coordinates":[103.874050559,1.26814669241]},"properties":{"vesselName":"SPM NEEL PRATAP 155"}},{"type":"Feature","geometry":{"type":"Point","coordinates":[104.141043411,1.28221610166]},"properties":{"vesselName":"CSPC NEPTUNE"}},{"type":"Feature","geometry":{"type":"Point","coordinates":[103.952473889,1.15909169211]},"properties":{"vesselName":"GREEN LAND"}},{"type":"Feature","geometry":{"type":"Point","coordinates":[103.566813872,1.24457206942]},"properties":{"vesselName":"MAYA VN"}},{"type":"Feature","geometry":{"type":"Point","coordinates":[103.920148894,1.27070835905]},"properties":{"vesselName":"KINAROS"}},{"type":"Feature","geometry":{"type":"Point","coordinates":[103.736859478,1.0855016656]},"properties":{"vesselName":"MENTARI I"}},{"type":"Feature","geometry":{"type":"Point","coordinates":[103.771237223,1.28402502545]},"properties":{"vesselName":"MAJU DAYA 89"}},{"type":"Feature","geometry":{"type":"Point","coordinates":[103.988024779,1.23992696261]},"properties":{"vesselName":"LAKE DESPINA"}},{"type":"Feature","geometry":{"type":"Point","coordinates":[103.724268889,1.29175335957]},"properties":{"vesselName":"STENSTRAUM"}},{"type":"Feature","geometry":{"type":"Point","coordinates":[104.631220588,1.7904867035]},"properties":{"vesselName":"ISSARA NAREE"}},{"type":"Feature","geometry":{"type":"Point","coordinates":[103.39462724,1.30107669163]},"properties":{"vesselName":"MERIDIAN ACE"}},{"type":"Feature","geometry":{"type":"Point","coordinates":[103.969583896,1.30266335855]},"properties":{"vesselName":"JUMBO ADVANCER"}},{"type":"Feature","geometry":{"type":"Point","coordinates":[104.163330548,1.32426502678]},"properties":{"vesselName":"CHASE OCEAN"}},{"type":"Feature","geometry":{"type":"Point","coordinates":[103.462738604,1.25392690538]},"properties":{"vesselName":"XIN JIN YANG"}},{"type":"Feature","geometry":{"type":"Point","coordinates":[104.151117421,1.3096981086]},"properties":{"vesselName":"PANGKALAN BRANDAN"}},{"type":"Feature","geometry":{"type":"Point","coordinates":[103.813048895,1.23758835852]},"properties":{"vesselName":"SENIPAH"}},{"type":"Feature","geometry":{"type":"Point","coordinates":[103.583897053,1.08057459203]},"properties":{"vesselName":"SANGGAU"}},{"type":"Feature","geometry":{"type":"Point","coordinates":[103.544090549,1.36676669594]},"properties":{"vesselName":"CAT LAI EXPRESS"}},{"type":"Feature","geometry":{"type":"Point","coordinates":[104.147683899,1.31541836063]},"properties":{"vesselName":"HAFNIA LIBRA"}},{"type":"Feature","geometry":{"type":"Point","coordinates":[104.064273887,1.31384669284]},"properties":{"vesselName":"MENTOR"}},{"type":"Feature","geometry":{"type":"Point","coordinates":[103.787050735,1.24326410758]},"properties":{"vesselName":"OOCL TEXAS"}},{"type":"Feature","geometry":{"type":"Point","coordinates":[103.660063714,1.04056415716]},"properties":{"vesselName":"TB KAIYUAN"}},{"type":"Feature","geometry":{"type":"Point","coordinates":[103.875522431,1.1911304599]},"properties":{"vesselName":"CMA CGM ESCURIAL"}},{"type":"Feature","geometry":{"type":"Point","coordinates":[103.790418215,1.47365422465]},"properties":{"vesselName":"TRANS OCEAN"}},{"type":"Feature","geometry":{"type":"Point","coordinates":[103.99658723,1.16503002558]},"properties":{"vesselName":"BLUE STAR"}},{"type":"Feature","geometry":{"type":"Point","coordinates":[104.076180551,1.30720335944]},"properties":{"vesselName":"TITANSHIP"}},{"type":"Feature","geometry":{"type":"Point","coordinates":[103.948545559,1.15311335646]},"properties":{"vesselName":"WGM 209"}},{"type":"Feature","geometry":{"type":"Point","coordinates":[103.896445558,1.4217967003]},"properties":{"vesselName":"BINA MARINE 81"}},{"type":"Feature","geometry":{"type":"Point","coordinates":[103.960022222,1.27780002542]},"properties":{"vesselName":"SYDNEY EXPRESS"}},{"type":"Feature","geometry":{"type":"Point","coordinates":[104.189395557,1.04217168454]},"properties":{"vesselName":"SPOB SULTAN SAMUDERA"}},{"type":"Feature","geometry":{"type":"Point","coordinates":[104.793814374,1.53089540966]},"properties":{"vesselName":"SPM BHEEM"}},{"type":"Feature","geometry":{"type":"Point","coordinates":[103.921352366,1.43409854361]},"properties":{"vesselName":"MDM EXPRESS 03"}},{"type":"Feature","geometry":{"type":"Point","coordinates":[103.490311664,1.14445416249]},"properties":{"vesselName":"SEA HOPE"}},{"type":"Feature","geometry":{"type":"Point","coordinates":[103.703070556,1.17469836022]},"properties":{"vesselName":"LNG RIVER ORASHI"}},{"type":"Feature","geometry":{"type":"Point","coordinates":[103.402957232,1.30248002593]},"properties":{"vesselName":"MINERVA SYMPHONY"}},{"type":"Feature","geometry":{"type":"Point","coordinates":[104.181114238,1.12753945813]},"properties":{"vesselName":"LUCTOR"}},{"type":"Feature","geometry":{"type":"Point","coordinates":[104.068933895,1.29891669164]},"properties":{"vesselName":"KOTA CARUM"}},{"type":"Feature","geometry":{"type":"Point","coordinates":[103.703830559,1.18765668961]},"properties":{"vesselName":"OCEAN PRINCESS"}},{"type":"Feature","geometry":{"type":"Point","coordinates":[104.098461331,1.29205319592]},"properties":{"vesselName":"PARAPOLA"}},{"type":"Feature","geometry":{"type":"Point","coordinates":[103.803100561,1.23965002645]},"properties":{"vesselName":"WOOJIN ELVIS"}},{"type":"Feature","geometry":{"type":"Point","coordinates":[103.928511161,1.2461950473]},"properties":{"vesselName":"ATOKOS"}},{"type":"Feature","geometry":{"type":"Point","coordinates":[104.569858264,1.64929472732]},"properties":{"vesselName":"OCEAN GODDESS"}},{"type":"Feature","geometry":{"type":"Point","coordinates":[103.896860561,1.25552835924]},"properties":{"vesselName":"MSC ELBA III"}},{"type":"Feature","geometry":{"type":"Point","coordinates":[104.109972527,1.31617691185]},"properties":{"vesselName":"SINGA BERLIAN"}},{"type":"Feature","geometry":{"type":"Point","coordinates":[103.947230561,1.26879335908]},"properties":{"vesselName":"ILMA"}},{"type":"Feature","geometry":{"type":"Point","coordinates":[103.631003886,1.25426669298]},"properties":{"vesselName":"MSC AMERICA"}},{"type":"Feature","geometry":{"type":"Point","coordinates":[103.878678327,1.26527779288]},"properties":{"vesselName":"BALHA ONE"}},{"type":"Feature","geometry":{"type":"Point","coordinates":[103.925251066,1.17620917694]},"properties":{"vesselName":"GAS ARJUNA"}},{"type":"Feature","geometry":{"type":"Point","coordinates":[104.531103847,1.47746422267]},"properties":{"vesselName":"MARS"}},{"type":"Feature","geometry":{"type":"Point","coordinates":[103.899933003,1.22619341355]},"properties":{"vesselName":"DAPHNE"}},{"type":"Feature","geometry":{"type":"Point","coordinates":[103.874288907,1.27021975015]},"properties":{"vesselName":"ASGARD"}},{"type":"Feature","geometry":{"type":"Point","coordinates":[103.535205657,1.11728968764]},"properties":{"vesselName":"KOTA DAHLIA"}},{"type":"Feature","geometry":{"type":"Point","coordinates":[103.921428891,1.08430003463]},"properties":{"vesselName":"ASL TRANSPORTER 3"}},{"type":"Feature","geometry":{"type":"Point","coordinates":[104.233835569,1.32625335858]},"properties":{"vesselName":"RAKIURA MARU"}},{"type":"Feature","geometry":{"type":"Point","coordinates":[103.378233352,1.20887744006]},"properties":{"vesselName":"MOTELE OLA"}},{"type":"Feature","geometry":{"type":"Point","coordinates":[104.168000552,1.10393336751]},"properties":{"vesselName":"FWN PROVIDER"}},{"type":"Feature","geometry":{"type":"Point","coordinates":[103.83512556,1.26402335926]},"properties":{"vesselName":"INTERASIA CATALYST"}},{"type":"Feature","geometry":{"type":"Point","coordinates":[103.933482229,1.25817669266]},"properties":{"vesselName":"TORKEL"}},{"type":"Feature","geometry":{"type":"Point","coordinates":[103.797264169,1.14351078564]},"properties":{"vesselName":"WORLD LEGACY"}},{"type":"Feature","geometry":{"type":"Point","coordinates":[103.98033196,1.25635923432]},"properties":{"vesselName":"IONIAN SUNSHINE"}},{"type":"Feature","geometry":{"type":"Point","coordinates":[103.624693897,1.25419169235]},"properties":{"vesselName":"MSC ALYSSA"}},{"type":"Feature","geometry":{"type":"Point","coordinates":[103.800997226,1.20352835993]},"properties":{"vesselName":"TORM ASTRID"}},{"type":"Feature","geometry":{"type":"Point","coordinates":[104.059257221,1.29063669234]},"properties":{"vesselName":"ANNABEL L"}},{"type":"Feature","geometry":{"type":"Point","coordinates":[103.55101222,1.34608335588]},"properties":{"vesselName":"MAERSK EINDHOVEN"}},{"type":"Feature","geometry":{"type":"Point","coordinates":[104.067600553,1.29012169139]},"properties":{"vesselName":"DONG YUAN"}},{"type":"Feature","geometry":{"type":"Point","coordinates":[103.555939064,0.986412263665]},"properties":{"vesselName":"LINTAS BARITO"}},{"type":"Feature","geometry":{"type":"Point","coordinates":[104.988231258,1.55144924257]},"properties":{"vesselName":"KOTA RESTU"}},{"type":"Feature","geometry":{"type":"Point","coordinates":[103.726518779,1.09081930787]},"properties":{"vesselName":"SEACON FUKUOKA"}},{"type":"Feature","geometry":{"type":"Point","coordinates":[103.95313368,1.15353683989]},"properties":{"vesselName":"MEX DE OCEAN 1"}},{"type":"Feature","geometry":{"type":"Point","coordinates":[103.950650991,1.2077049237]},"properties":{"vesselName":"MAKMUR AGUNG"}},{"type":"Feature","geometry":{"type":"Point","coordinates":[103.892333893,1.2570333588]},"properties":{"vesselName":"OCEAN GLORY"}},{"type":"Feature","geometry":{"type":"Point","coordinates":[103.966998684,1.1588257691]},"properties":{"vesselName":"ALKEN PRINCESS"}},{"type":"Feature","geometry":{"type":"Point","coordinates":[103.909464175,1.19912092122]},"properties":{"vesselName":"FRASER DOLPHIN"}},{"type":"Feature","geometry":{"type":"Point","coordinates":[103.84385056,1.26315169237]},"properties":{"vesselName":"SABANG 39"}},{"type":"Feature","geometry":{"type":"Point","coordinates":[103.655683898,1.30921669407]},"properties":{"vesselName":"BLUE TITANIUM"}},{"type":"Feature","geometry":{"type":"Point","coordinates":[103.69512223,1.30283835985]},"properties":{"vesselName":"PW EON"}},{"type":"Feature","geometry":{"type":"Point","coordinates":[103.441867231,1.25753335896]},"properties":{"vesselName":"CHRONOSTAR"}},{"type":"Feature","geometry":{"type":"Point","coordinates":[103.869633892,1.26376335921]},"properties":{"vesselName":"WINDCAT ROTTERDAM"}},{"type":"Feature","geometry":{"type":"Point","coordinates":[103.740540564,1.27675002548]},"properties":{"vesselName":"BEI HAI QI LIN"}},{"type":"Feature","geometry":{"type":"Point","coordinates":[103.73917091,1.20076748987]},"properties":{"vesselName":"CSM HYDRA"}},{"type":"Feature","geometry":{"type":"Point","coordinates":[103.952838897,1.28006669271]},"properties":{"vesselName":"PIA OLDENDORFF"}},{"type":"Feature","geometry":{"type":"Point","coordinates":[103.552520567,1.342498359]},"properties":{"vesselName":"KEJORA PTP 81"}},{"type":"Feature","geometry":{"type":"Point","coordinates":[103.544959834,1.35697982564]},"properties":{"vesselName":"AS PENELOPE"}},{"type":"Feature","geometry":{"type":"Point","coordinates":[104.009468891,1.44144335998]},"properties":{"vesselName":"GREAT WALRUS"}},{"type":"Feature","geometry":{"type":"Point","coordinates":[103.552417241,1.3424400227]},"properties":{"vesselName":"KEJORA PTP 82"}},{"type":"Feature","geometry":{"type":"Point","coordinates":[103.840260045,1.25993216875]},"properties":{"vesselName":"KOTA GAYA"}},{"type":"Feature","geometry":{"type":"Point","coordinates":[103.695550671,1.05184701244]},"properties":{"vesselName":"MAJU DAYA 33"}},{"type":"Feature","geometry":{"type":"Point","coordinates":[103.681968892,1.19292835762]},"properties":{"vesselName":"HAFNIA PHOENIX"}},{"type":"Feature","geometry":{"type":"Point","coordinates":[103.787093892,1.25714169278]},"properties":{"vesselName":"CMA CGM COBALT"}},{"type":"Feature","geometry":{"type":"Point","coordinates":[103.605610557,1.24247502687]},"properties":{"vesselName":"ALANIS"}},{"type":"Feature","geometry":{"type":"Point","coordinates":[103.754330426,1.18380806973]},"properties":{"vesselName":"EAGLE SAKURA"}},{"type":"Feature","geometry":{"type":"Point","coordinates":[103.793182228,1.26770335914]},"properties":{"vesselName":"THE WHALE SHARK"}},{"type":"Feature","geometry":{"type":"Point","coordinates":[104.090548887,1.33705836062]},"properties":{"vesselName":"METIS"}},{"type":"Feature","geometry":{"type":"Point","coordinates":[103.736260556,1.28067335938]},"properties":{"vesselName":"SAIPH"}},{"type":"Feature","geometry":{"type":"Point","coordinates":[104.162275554,1.3071950244]},"properties":{"vesselName":"HENG HUI YONG AN"}},{"type":"Feature","geometry":{"type":"Point","coordinates":[103.962823891,1.00546335369]},"properties":{"vesselName":"MMA PLOVER"}},{"type":"Feature","geometry":{"type":"Point","coordinates":[104.672945416,1.58365076616]},"properties":{"vesselName":"ROSTRUM SAO PAULO"}},{"type":"Feature","geometry":{"type":"Point","coordinates":[103.836229746,1.47116026525]},"properties":{"vesselName":"DOLPHIN GLORY"}},{"type":"Feature","geometry":{"type":"Point","coordinates":[103.782879973,1.18022165754]},"properties":{"vesselName":"VINJERAC"}},{"type":"Feature","geometry":{"type":"Point","coordinates":[103.867107226,1.24908502594]},"properties":{"vesselName":"AMADEUS 1"}},{"type":"Feature","geometry":{"type":"Point","coordinates":[103.895720558,1.07878335536]},"properties":{"vesselName":"WINDPIPER"}},{"type":"Feature","geometry":{"type":"Point","coordinates":[103.896695559,1.07899501862]},"properties":{"vesselName":"BRITOIL COMMANDER"}},{"type":"Feature","geometry":{"type":"Point","coordinates":[103.894202224,1.27409169242]},"properties":{"vesselName":"ORIENTAL BEAUTY"}},{"type":"Feature","geometry":{"type":"Point","coordinates":[104.025465026,1.27509347234]},"properties":{"vesselName":"SEA WIN I"}},{"type":"Feature","geometry":{"type":"Point","coordinates":[103.756627223,1.22139669368]},"properties":{"vesselName":"PACIFIC DOVE"}},{"type":"Feature","geometry":{"type":"Point","coordinates":[103.99613056,1.15410169053]},"properties":{"vesselName":"PUTRI ANGGRENI 07"}},{"type":"Feature","geometry":{"type":"Point","coordinates":[103.660319337,1.18169053045]},"properties":{"vesselName":"LNG ENDURANCE"}},{"type":"Feature","geometry":{"type":"Point","coordinates":[103.907860558,1.05173169179]},"properties":{"vesselName":"INTAN DAYA 3"}},{"type":"Feature","geometry":{"type":"Point","coordinates":[104.143820568,1.08647169643]},"properties":{"vesselName":"CALVIN I"}},{"type":"Feature","geometry":{"type":"Point","coordinates":[103.588152604,1.14014328848]},"properties":{"vesselName":"SINAR LESTARI 9"}},{"type":"Feature","geometry":{"type":"Point","coordinates":[104.034718976,1.36524386084]},"properties":{"vesselName":"SUKSES ABADI 02"}},{"type":"Feature","geometry":{"type":"Point","coordinates":[104.443085151,1.37774068637]},"properties":{"vesselName":"EVER MAGI"}},{"type":"Feature","geometry":{"type":"Point","coordinates":[103.876033894,1.24860002618]},"properties":{"vesselName":"BIGROLL BEAUFORT"}},{"type":"Feature","geometry":{"type":"Point","coordinates":[103.684182231,1.26356502579]},"properties":{"vesselName":"HAFNIA EXECUTIVE"}},{"type":"Feature","geometry":{"type":"Point","coordinates":[103.365160548,1.13366335832]},"properties":{"vesselName":"ARMADA ASIA"}},{"type":"Feature","geometry":{"type":"Point","coordinates":[104.138235559,1.06457001955]},"properties":{"vesselName":"SWIBER SAPPHIRE"}},{"type":"Feature","geometry":{"type":"Point","coordinates":[104.654632231,1.71034337672]},"properties":{"vesselName":"BERICA"}},{"type":"Feature","geometry":{"type":"Point","coordinates":[103.750370648,1.29569134478]},"properties":{"vesselName":"OASIS DOLPHIN"}},{"type":"Feature","geometry":{"type":"Point","coordinates":[104.155222232,1.1212950279]},"properties":{"vesselName":"BINA MARINE 109"}},{"type":"Feature","geometry":{"type":"Point","coordinates":[103.910963895,1.05960169977]},"properties":{"vesselName":"CAMILLA"}},{"type":"Feature","geometry":{"type":"Point","coordinates":[104.629500108,1.58334911794]},"properties":{"vesselName":"TORM HELENE"}},{"type":"Feature","geometry":{"type":"Point","coordinates":[103.893635559,1.42361459698]},"properties":{"vesselName":"MILLENNIUM 801"}},{"type":"Feature","geometry":{"type":"Point","coordinates":[104.055491498,1.24638997675]},"properties":{"vesselName":"SIENA"}},{"type":"Feature","geometry":{"type":"Point","coordinates":[104.215073889,1.31914169094]},"properties":{"vesselName":"DING HENG 40"}},{"type":"Feature","geometry":{"type":"Point","coordinates":[103.895027225,1.42202668774]},"properties":{"vesselName":"MILLENNIUM 803"}},{"type":"Feature","geometry":{"type":"Point","coordinates":[103.789837224,1.26211835903]},"properties":{"vesselName":"CNC NEPTUNE"}},{"type":"Feature","geometry":{"type":"Point","coordinates":[104.166795555,1.32325669176]},"properties":{"vesselName":"HAFNIA PRIDE"}},{"type":"Feature","geometry":{"type":"Point","coordinates":[103.758595558,1.28483335958]},"properties":{"vesselName":"SEASPAN BELLWETHER"}},{"type":"Feature","geometry":{"type":"Point","coordinates":[104.470355787,1.40188413134]},"properties":{"vesselName":"SHENG HANG TIAO ZHAN"}},{"type":"Feature","geometry":{"type":"Point","coordinates":[103.726825563,1.29041169252]},"properties":{"vesselName":"TORM TORINO"}},{"type":"Feature","geometry":{"type":"Point","coordinates":[103.542264907,1.3520210583]},"properties":{"vesselName":"DAI THANH"}},{"type":"Feature","geometry":{"type":"Point","coordinates":[103.828983387,1.219241809]},"properties":{"vesselName":"LS VENUS"}},{"type":"Feature","geometry":{"type":"Point","coordinates":[104.60287076,1.60423127224]},"properties":{"vesselName":"SHOYU"}},{"type":"Feature","geometry":{"type":"Point","coordinates":[103.997917224,1.29126335833]},"properties":{"vesselName":"GLORY FIRST"}},{"type":"Feature","geometry":{"type":"Point","coordinates":[103.914155558,1.43210168727]},"properties":{"vesselName":"PHOENIX SKY"}},{"type":"Feature","geometry":{"type":"Point","coordinates":[104.561629377,1.55080762956]},"properties":{"vesselName":"EVER ALOT"}},{"type":"Feature","geometry":{"type":"Point","coordinates":[104.013578484,1.29832455238]},"properties":{"vesselName":"AUGUSTE SCHULTE"}},{"type":"Feature","geometry":{"type":"Point","coordinates":[103.98268389,1.18361669034]},"properties":{"vesselName":"JADE CASTLE"}},{"type":"Feature","geometry":{"type":"Point","coordinates":[104.774883863,1.06720002652]},"properties":{"vesselName":"NEWSUN HARMONY"}},{"type":"Feature","geometry":{"type":"Point","coordinates":[103.453212219,1.26130335939]},"properties":{"vesselName":"HARMONY STAR"}},{"type":"Feature","geometry":{"type":"Point","coordinates":[103.966513897,1.15315835967]},"properties":{"vesselName":"EL NINA SAMUDRA 23"}},{"type":"Feature","geometry":{"type":"Point","coordinates":[103.759685096,1.18882009872]},"properties":{"vesselName":"SAEHAN ASTRO"}},{"type":"Feature","geometry":{"type":"Point","coordinates":[103.918850561,1.13616835665]},"properties":{"vesselName":"ADINDA AZULA"}},{"type":"Feature","geometry":{"type":"Point","coordinates":[104.348776705,1.30823881137]},"properties":{"vesselName":"CS FAITH"}},{"type":"Feature","geometry":{"type":"Point","coordinates":[103.56415636,1.15579620702]},"properties":{"vesselName":"EVER APEX"}},{"type":"Feature","geometry":{"type":"Point","coordinates":[103.968785564,1.28726502653]},"properties":{"vesselName":"CL ANZI HE"}},{"type":"Feature","geometry":{"type":"Point","coordinates":[103.832920559,1.26392335901]},"properties":{"vesselName":"WAN HAI 317"}},{"type":"Feature","geometry":{"type":"Point","coordinates":[104.011970562,1.44811168973]},"properties":{"vesselName":"QUARTERBACK J"}},{"type":"Feature","geometry":{"type":"Point","coordinates":[103.890167227,1.09744168783]},"properties":{"vesselName":"ALBATROSS"}},{"type":"Feature","geometry":{"type":"Point","coordinates":[103.779918891,1.2580316924]},"properties":{"vesselName":"APL MIAMI"}},{"type":"Feature","geometry":{"type":"Point","coordinates":[103.98486723,1.29371669247]},"properties":{"vesselName":"NEW GRACE"}},{"type":"Feature","geometry":{"type":"Point","coordinates":[104.567152491,1.48121588232]},"properties":{"vesselName":"REN JIAN 8"}},{"type":"Feature","geometry":{"type":"Point","coordinates":[104.270477243,1.33469669451]},"properties":{"vesselName":"HAFNIA RAVEN"}},{"type":"Feature","geometry":{"type":"Point","coordinates":[104.800600588,1.85211335106]},"properties":{"vesselName":"BIG STAR"}},{"type":"Feature","geometry":{"type":"Point","coordinates":[103.573154457,1.23409163902]},"properties":{"vesselName":"CS BRILLIANCE"}},{"type":"Feature","geometry":{"type":"Point","coordinates":[103.913017224,1.03625003033]},"properties":{"vesselName":"JAYA DRAGON"}},{"type":"Feature","geometry":{"type":"Point","coordinates":[103.949103893,1.28542002609]},"properties":{"vesselName":"SHENG XIANG HAI"}},{"type":"Feature","geometry":{"type":"Point","coordinates":[103.788972227,1.26033669254]},"properties":{"vesselName":"CMA CGM ZEPHYR"}},{"type":"Feature","geometry":{"type":"Point","coordinates":[103.966498546,1.26384679632]},"properties":{"vesselName":"VOLTA RIVER"}},{"type":"Feature","geometry":{"type":"Point","coordinates":[103.723407228,1.30219836016]},"properties":{"vesselName":"LUCA"}},{"type":"Feature","geometry":{"type":"Point","coordinates":[103.554125491,1.33783377025]},"properties":{"vesselName":"MERATUS JAYAKARTA"}},{"type":"Feature","geometry":{"type":"Point","coordinates":[104.645894822,1.60112866307]},"properties":{"vesselName":"LOWLANDS SPIRIT"}},{"type":"Feature","geometry":{"type":"Point","coordinates":[103.809026105,1.24998281741]},"properties":{"vesselName":"GLORY BLUE"}},{"type":"Feature","geometry":{"type":"Point","coordinates":[103.807039586,1.47635353322]},"properties":{"vesselName":"CITRA LEGACY 5"}},{"type":"Feature","geometry":{"type":"Point","coordinates":[103.576842226,1.25210169237]},"properties":{"vesselName":"CHANG HANG LANJING"}},{"type":"Feature","geometry":{"type":"Point","coordinates":[104.046738621,1.26675899754]},"properties":{"vesselName":"KYPROS SEA"}},{"type":"Feature","geometry":{"type":"Point","coordinates":[103.546135556,1.35990169252]},"properties":{"vesselName":"MERATUS JIMBARAN"}},{"type":"Feature","geometry":{"type":"Point","coordinates":[103.782993895,1.2561266927]},"properties":{"vesselName":"CMA CGM AFRICA TWO"}},{"type":"Feature","geometry":{"type":"Point","coordinates":[103.898083892,1.07839168586]},"properties":{"vesselName":"SURF MANDIRI"}},{"type":"Feature","geometry":{"type":"Point","coordinates":[104.017067229,1.2811383593]},"properties":{"vesselName":"MINERAL NAMIBIA"}},{"type":"Feature","geometry":{"type":"Point","coordinates":[103.81800056,1.21683335967]},"properties":{"vesselName":"JAG AMISHA"}},{"type":"Feature","geometry":{"type":"Point","coordinates":[103.489501947,1.13797895594]},"properties":{"vesselName":"MIKOS"}},{"type":"Feature","geometry":{"type":"Point","coordinates":[104.021143849,1.25592974523]},"properties":{"vesselName":"SILVER NEREIS"}},{"type":"Feature","geometry":{"type":"Point","coordinates":[103.551668888,1.25096002622]},"properties":{"vesselName":"KYPARISSIA"}},{"type":"Feature","geometry":{"type":"Point","coordinates":[104.265313891,1.32916669075]},"properties":{"vesselName":"EASTERN QUINCE"}},{"type":"Feature","geometry":{"type":"Point","coordinates":[103.933315564,1.28559335887]},"properties":{"vesselName":"AKSON ADAM"}},{"type":"Feature","geometry":{"type":"Point","coordinates":[103.940772375,1.28510123935]},"properties":{"vesselName":"MLS ONYX"}},{"type":"Feature","geometry":{"type":"Point","coordinates":[103.753026654,1.10469324173]},"properties":{"vesselName":"INDUS DOLPHIN"}},{"type":"Feature","geometry":{"type":"Point","coordinates":[104.012150567,1.4582816995]},"properties":{"vesselName":"CRUX TWIN"}},{"type":"Feature","geometry":{"type":"Point","coordinates":[103.685317227,1.19911169331]},"properties":{"vesselName":"MK LION"}},{"type":"Feature","geometry":{"type":"Point","coordinates":[104.121190558,1.31724336026]},"properties":{"vesselName":"TOP GRAND"}},{"type":"Feature","geometry":{"type":"Point","coordinates":[104.000633898,1.16522335674]},"properties":{"vesselName":"TITANINDO I"}},{"type":"Feature","geometry":{"type":"Point","coordinates":[104.465282239,1.67099670888]},"properties":{"vesselName":"OCEANA PEARL"}},{"type":"Feature","geometry":{"type":"Point","coordinates":[103.755309556,1.19035192139]},"properties":{"vesselName":"TORERO"}},{"type":"Feature","geometry":{"type":"Point","coordinates":[103.750415956,1.29560788284]},"properties":{"vesselName":"PINKY DOLPHIN"}},{"type":"Feature","geometry":{"type":"Point","coordinates":[103.810175751,1.24381718801]},"properties":{"vesselName":"DUSKY DOLPHIN"}},{"type":"Feature","geometry":{"type":"Point","coordinates":[103.986301738,1.26735615199]},"properties":{"vesselName":"HARVEST LEGACY"}},{"type":"Feature","geometry":{"type":"Point","coordinates":[103.89699556,1.07783836171]},"properties":{"vesselName":"ASL MULIA"}},{"type":"Feature","geometry":{"type":"Point","coordinates":[104.143852232,1.32142669144]},"properties":{"vesselName":"YAQUT"}},{"type":"Feature","geometry":{"type":"Point","coordinates":[103.99823056,1.16490502396]},"properties":{"vesselName":"ULTRA BENGUELA"}},{"type":"Feature","geometry":{"type":"Point","coordinates":[104.1269539,1.32888002752]},"properties":{"vesselName":"LAN HAI YUAN WANG"}},{"type":"Feature","geometry":{"type":"Point","coordinates":[104.160137211,1.08930668507]},"properties":{"vesselName":"JAYA BUANA"}},{"type":"Feature","geometry":{"type":"Point","coordinates":[104.259001643,1.27188020269]},"properties":{"vesselName":"SPRING HARMONY"}},{"type":"Feature","geometry":{"type":"Point","coordinates":[103.928483889,1.2835500255]},"properties":{"vesselName":"LUCKY GLORY 2"}},{"type":"Feature","geometry":{"type":"Point","coordinates":[103.843514406,1.24199076624]},"properties":{"vesselName":"DM 11"}},{"type":"Feature","geometry":{"type":"Point","coordinates":[103.808339927,1.24089813609]},"properties":{"vesselName":"TJ HARVEST"}},{"type":"Feature","geometry":{"type":"Point","coordinates":[104.808904258,1.5680037258]},"properties":{"vesselName":"SEA EAGLE"}},{"type":"Feature","geometry":{"type":"Point","coordinates":[103.924673889,1.12476836135]},"properties":{"vesselName":"WAVEMASTER 8"}},{"type":"Feature","geometry":{"type":"Point","coordinates":[103.595305554,1.2694966925]},"properties":{"vesselName":"EM FAITH"}},{"type":"Feature","geometry":{"type":"Point","coordinates":[103.555900552,1.33346669073]},"properties":{"vesselName":"MAERSK HORSBURGH"}},{"type":"Feature","geometry":{"type":"Point","coordinates":[103.762683036,1.17081220405]},"properties":{"vesselName":"SFE HERCULES"}},{"type":"Feature","geometry":{"type":"Point","coordinates":[103.920133895,1.28868336016]},"properties":{"vesselName":"PHUBAI PATTRA 2"}},{"type":"Feature","geometry":{"type":"Point","coordinates":[103.943984182,1.15769118607]},"properties":{"vesselName":"ASIAN GAS II"}},{"type":"Feature","geometry":{"type":"Point","coordinates":[104.110128896,1.33068669269]},"properties":{"vesselName":"SUN KRONOS"}},{"type":"Feature","geometry":{"type":"Point","coordinates":[103.976704083,1.1547650392]},"properties":{"vesselName":"SERVEWELL SINCERE"}},{"type":"Feature","geometry":{"type":"Point","coordinates":[103.672993901,1.22651169077]},"properties":{"vesselName":"YUN QUE ZUO"}},{"type":"Feature","geometry":{"type":"Point","coordinates":[104.115597843,1.32749776535]},"properties":{"vesselName":"CHUANG XIN 6"}},{"type":"Feature","geometry":{"type":"Point","coordinates":[103.924835564,1.28761169315]},"properties":{"vesselName":"KAWA KOPER"}},{"type":"Feature","geometry":{"type":"Point","coordinates":[103.903147227,1.09627668922]},"properties":{"vesselName":"MEX DE OCEAN 8"}},{"type":"Feature","geometry":{"type":"Point","coordinates":[103.681235498,1.1979352962]},"properties":{"vesselName":"MONA"}},{"type":"Feature","geometry":{"type":"Point","coordinates":[103.76620513,1.18382790383]},"properties":{"vesselName":"EALDOR"}},{"type":"Feature","geometry":{"type":"Point","coordinates":[103.878316757,1.20784284424]},"properties":{"vesselName":"THERESA ASIA"}},{"type":"Feature","geometry":{"type":"Point","coordinates":[103.780050558,1.27641669197]},"properties":{"vesselName":"MANCHESTER MAERSK"}},{"type":"Feature","geometry":{"type":"Point","coordinates":[103.523081014,1.16933643401]},"properties":{"vesselName":"PVT VALENCIA"}},{"type":"Feature","geometry":{"type":"Point","coordinates":[104.664432362,1.59546724456]},"properties":{"vesselName":"MAERSK FREMANTLE"}},{"type":"Feature","geometry":{"type":"Point","coordinates":[104.43226709,1.40542317755]},"properties":{"vesselName":"NAUTICAL QUEEN"}},{"type":"Feature","geometry":{"type":"Point","coordinates":[103.635530555,1.24484169216]},"properties":{"vesselName":"MSC DANIT"}},{"type":"Feature","geometry":{"type":"Point","coordinates":[103.929840556,1.2890950263]},"properties":{"vesselName":"GREAT LAKE"}},{"type":"Feature","geometry":{"type":"Point","coordinates":[103.89096056,1.26153169242]},"properties":{"vesselName":"ORIENTAL PEACE"}},{"type":"Feature","geometry":{"type":"Point","coordinates":[103.908316266,1.13278305729]},"properties":{"vesselName":"SHINKO MARU"}},{"type":"Feature","geometry":{"type":"Point","coordinates":[104.588394186,1.43002318876]},"properties":{"vesselName":"YONG CHANG SHUN HANG"}},{"type":"Feature","geometry":{"type":"Point","coordinates":[103.843185323,1.20111162154]},"properties":{"vesselName":"HORIZON 8"}},{"type":"Feature","geometry":{"type":"Point","coordinates":[103.958350564,1.16161669684]},"properties":{"vesselName":"GLOBAL QUEEN 1"}},{"type":"Feature","geometry":{"type":"Point","coordinates":[104.065327222,1.31858669309]},"properties":{"vesselName":"WIND ALLY"}},{"type":"Feature","geometry":{"type":"Point","coordinates":[104.7854933,2.34038428483]},"properties":{"vesselName":"DENNIE"}},{"type":"Feature","geometry":{"type":"Point","coordinates":[103.780850558,1.26321835914]},"properties":{"vesselName":"SEASPAN TOKYO"}},{"type":"Feature","geometry":{"type":"Point","coordinates":[103.188243837,1.38508175297]},"properties":{"vesselName":"CAPTAIN LUCAS"}},{"type":"Feature","geometry":{"type":"Point","coordinates":[103.506108541,1.19818376901]},"properties":{"vesselName":"MAERSK VERACRUZ"}},{"type":"Feature","geometry":{"type":"Point","coordinates":[103.961087224,1.00500003256]},"properties":{"vesselName":"MK HIPPO"}},{"type":"Feature","geometry":{"type":"Point","coordinates":[103.691537231,1.24049669139]},"properties":{"vesselName":"ROMANCE"}},{"type":"Feature","geometry":{"type":"Point","coordinates":[104.205898119,1.2676092162]},"properties":{"vesselName":"GREEN YOKOHAMA"}},{"type":"Feature","geometry":{"type":"Point","coordinates":[103.562113885,1.23482502619]},"properties":{"vesselName":"XIN NING YANG"}},{"type":"Feature","geometry":{"type":"Point","coordinates":[103.719280559,1.16982836174]},"properties":{"vesselName":"DONG GUI 18"}},{"type":"Feature","geometry":{"type":"Point","coordinates":[103.582124735,1.19773566397]},"properties":{"vesselName":"ONE AMAZON"}},{"type":"Feature","geometry":{"type":"Point","coordinates":[103.95818889,1.28981502612]},"properties":{"vesselName":"BAO TAI HAI"}},{"type":"Feature","geometry":{"type":"Point","coordinates":[103.913707226,1.28694002559]},"properties":{"vesselName":"ASIA EVERGREEN"}},{"type":"Feature","geometry":{"type":"Point","coordinates":[104.402458887,1.51829835447]},"properties":{"vesselName":"THEA"}},{"type":"Feature","geometry":{"type":"Point","coordinates":[103.828060561,1.26253502568]},"properties":{"vesselName":"SD DIAMOND"}},{"type":"Feature","geometry":{"type":"Point","coordinates":[103.867567226,1.25144502613]},"properties":{"vesselName":"BUANA 1302"}},{"type":"Feature","geometry":{"type":"Point","coordinates":[104.135590562,1.29937002612]},"properties":{"vesselName":"THERESA BLISS"}},{"type":"Feature","geometry":{"type":"Point","coordinates":[104.177267242,1.32850002702]},"properties":{"vesselName":"GAS EMERALD"}},{"type":"Feature","geometry":{"type":"Point","coordinates":[104.104408504,1.32002031213]},"properties":{"vesselName":"KAMNIK"}},{"type":"Feature","geometry":{"type":"Point","coordinates":[103.75500223,1.27740669287]},"properties":{"vesselName":"ONE FRIENDSHIP"}},{"type":"Feature","geometry":{"type":"Point","coordinates":[103.750043966,1.17782053174]},"properties":{"vesselName":"THETISIA"}},{"type":"Feature","geometry":{"type":"Point","coordinates":[103.939411934,1.27274972149]},"properties":{"vesselName":"SEA DRACO"}},{"type":"Feature","geometry":{"type":"Point","coordinates":[103.88661171,1.27141611833]},"properties":{"vesselName":"ASEAN EXPLORER"}},{"type":"Feature","geometry":{"type":"Point","coordinates":[104.726176567,1.75266302481]},"properties":{"vesselName":"GAS MARTA"}},{"type":"Feature","geometry":{"type":"Point","coordinates":[103.995160633,1.1592541271]},"properties":{"vesselName":"TB SAMUDRA TIRTA 11"}},{"type":"Feature","geometry":{"type":"Point","coordinates":[103.895853893,1.0800950196]},"properties":{"vesselName":"KARYA ABADI 8"}},{"type":"Feature","geometry":{"type":"Point","coordinates":[104.01284433,1.19847323982]},"properties":{"vesselName":"SUMBER Z MARINE"}},{"type":"Feature","geometry":{"type":"Point","coordinates":[103.900059062,1.42618133899]},"properties":{"vesselName":"INDAH LAUT 2202"}},{"type":"Feature","geometry":{"type":"Point","coordinates":[104.191988883,1.04159002158]},"properties":{"vesselName":"RATUYAMANI"}},{"type":"Feature","geometry":{"type":"Point","coordinates":[103.634222218,1.34256668988]},"properties":{"vesselName":"NAKHUDA"}},{"type":"Feature","geometry":{"type":"Point","coordinates":[103.322407234,1.37272335742]},"properties":{"vesselName":"PIS BANGKA"}},{"type":"Feature","geometry":{"type":"Point","coordinates":[104.187766241,1.11995051989]},"properties":{"vesselName":"PIS BELITUNG"}},{"type":"Feature","geometry":{"type":"Point","coordinates":[103.684592221,1.25994335921]},"properties":{"vesselName":"PIS BINTAN"}},{"type":"Feature","geometry":{"type":"Point","coordinates":[103.952752508,1.22622102016]},"properties":{"vesselName":"KEN YO"}},{"type":"Feature","geometry":{"type":"Point","coordinates":[103.994172227,1.19596836066]},"properties":{"vesselName":"NORTH LIGHT"}},{"type":"Feature","geometry":{"type":"Point","coordinates":[103.710475562,1.18146335932]},"properties":{"vesselName":"GAS VALERIA"}},{"type":"Feature","geometry":{"type":"Point","coordinates":[103.887177224,1.43776835485]},"properties":{"vesselName":"WAN HANG HENG YUAN"}},{"type":"Feature","geometry":{"type":"Point","coordinates":[103.717817227,1.30403335958]},"properties":{"vesselName":"TAN BINH 267"}},{"type":"Feature","geometry":{"type":"Point","coordinates":[103.542808898,1.37074502318]},"properties":{"vesselName":"CUL BANGKOK"}},{"type":"Feature","geometry":{"type":"Point","coordinates":[103.655367227,1.31018002416]},"properties":{"vesselName":"AESEN 115"}},{"type":"Feature","geometry":{"type":"Point","coordinates":[103.913425559,1.43220002189]},"properties":{"vesselName":"MING LIAN"}},{"type":"Feature","geometry":{"type":"Point","coordinates":[104.175938892,1.32325169338]},"properties":{"vesselName":"PUTERI DELIMA SATU"}},{"type":"Feature","geometry":{"type":"Point","coordinates":[103.654055567,1.30743502705]},"properties":{"vesselName":"BS OCEAN"}},{"type":"Feature","geometry":{"type":"Point","coordinates":[104.054330563,1.13382169331]},"properties":{"vesselName":"MARINA LINES"}},{"type":"Feature","geometry":{"type":"Point","coordinates":[103.586627231,1.27547002606]},"properties":{"vesselName":"DING HENG 25"}},{"type":"Feature","geometry":{"type":"Point","coordinates":[103.78848171,1.4693566636]},"properties":{"vesselName":"MIRANGGA ALPHA"}},{"type":"Feature","geometry":{"type":"Point","coordinates":[104.481279739,1.40667161038]},"properties":{"vesselName":"AS CHRISTIANA"}},{"type":"Feature","geometry":{"type":"Point","coordinates":[103.846011646,1.16553716979]},"properties":{"vesselName":"AYU 68"}},{"type":"Feature","geometry":{"type":"Point","coordinates":[103.918767224,1.13606002911]},"properties":{"vesselName":"SEMBILAN ENAM 96"}},{"type":"Feature","geometry":{"type":"Point","coordinates":[104.015685565,1.28780169217]},"properties":{"vesselName":"FAIRWAY"}},{"type":"Feature","geometry":{"type":"Point","coordinates":[103.893940562,1.42334503074]},"properties":{"vesselName":"GARUDA PERKASA"}},{"type":"Feature","geometry":{"type":"Point","coordinates":[103.762907196,1.1872136576]},"properties":{"vesselName":"GOLDEN VEGA"}},{"type":"Feature","geometry":{"type":"Point","coordinates":[103.894450069,1.18698662651]},"properties":{"vesselName":"SAMUDRA TIRTA 7"}},{"type":"Feature","geometry":{"type":"Point","coordinates":[103.908258893,1.02882003064]},"properties":{"vesselName":"BC PIONEER 88"}},{"type":"Feature","geometry":{"type":"Point","coordinates":[103.750865555,1.18787169553]},"properties":{"vesselName":"DING HENG 32"}},{"type":"Feature","geometry":{"type":"Point","coordinates":[104.783997195,1.51488002395]},"properties":{"vesselName":"DA SHUN"}},{"type":"Feature","geometry":{"type":"Point","coordinates":[104.204841394,1.05122536623]},"properties":{"vesselName":"REGENT GEMINI"}},{"type":"Feature","geometry":{"type":"Point","coordinates":[104.252328896,1.33171669216]},"properties":{"vesselName":"FORTRESS"}},{"type":"Feature","geometry":{"type":"Point","coordinates":[103.816408894,1.22708669094]},"properties":{"vesselName":"TORM DOVER"}},{"type":"Feature","geometry":{"type":"Point","coordinates":[103.870608894,1.26625169248]},"properties":{"vesselName":"SEA1 AMETHYST"}},{"type":"Feature","geometry":{"type":"Point","coordinates":[103.966340561,1.38440002907]},"properties":{"vesselName":"WM NATUNA"}},{"type":"Feature","geometry":{"type":"Point","coordinates":[103.979480555,1.16080168944]},"properties":{"vesselName":"INTAN DAYA 6"}},{"type":"Feature","geometry":{"type":"Point","coordinates":[103.972550535,1.22024597042]},"properties":{"vesselName":"DYNA TUG NO 3"}},{"type":"Feature","geometry":{"type":"Point","coordinates":[104.154887234,1.05052669458]},"properties":{"vesselName":"CANTIKA8"}},{"type":"Feature","geometry":{"type":"Point","coordinates":[103.6302339,1.24470002674]},"properties":{"vesselName":"MSC RIKKU"}},{"type":"Feature","geometry":{"type":"Point","coordinates":[103.90550653,1.12304094995]},"properties":{"vesselName":"EQUITORIA KINGFISHER"}},{"type":"Feature","geometry":{"type":"Point","coordinates":[103.754042229,1.29615669149]},"properties":{"vesselName":"ASL ABADI 3"}},{"type":"Feature","geometry":{"type":"Point","coordinates":[103.899823893,1.07346669633]},"properties":{"vesselName":"EASTERN WB400"}},{"type":"Feature","geometry":{"type":"Point","coordinates":[104.116187847,1.33486261125]},"properties":{"vesselName":"VICTORY 1803"}},{"type":"Feature","geometry":{"type":"Point","coordinates":[103.709117225,1.1771333616]},"properties":{"vesselName":"SC QINGDAO"}},{"type":"Feature","geometry":{"type":"Point","coordinates":[103.929140559,1.10701668516]},"properties":{"vesselName":"JOOP"}},{"type":"Feature","geometry":{"type":"Point","coordinates":[104.001873889,1.16547835706]},"properties":{"vesselName":"MEGAMAS STAR"}},{"type":"Feature","geometry":{"type":"Point","coordinates":[104.010183889,1.44121668954]},"properties":{"vesselName":"GT FREEDOM"}},{"type":"Feature","geometry":{"type":"Point","coordinates":[103.96015274,1.27185922393]},"properties":{"vesselName":"JOSCO SHENGZHOU"}},{"type":"Feature","geometry":{"type":"Point","coordinates":[103.908944243,1.42543017008]},"properties":{"vesselName":"ORION"}},{"type":"Feature","geometry":{"type":"Point","coordinates":[103.841177226,1.24399002473]},"properties":{"vesselName":"G GARCA I"}},{"type":"Feature","geometry":{"type":"Point","coordinates":[103.878227226,1.25991169272]},"properties":{"vesselName":"MP 2"}},{"type":"Feature","geometry":{"type":"Point","coordinates":[104.209592229,1.08126335235]},"properties":{"vesselName":"TORM EVA"}},{"type":"Feature","geometry":{"type":"Point","coordinates":[104.001962228,1.18524836027]},"properties":{"vesselName":"TIMAS DLB 01"}},{"type":"Feature","geometry":{"type":"Point","coordinates":[103.942558891,1.28908169217]},"properties":{"vesselName":"KANG MAN"}},{"type":"Feature","geometry":{"type":"Point","coordinates":[103.905278893,1.09479836567]},"properties":{"vesselName":"ASGAR 32001"}},{"type":"Feature","geometry":{"type":"Point","coordinates":[103.840732226,1.24334002617]},"properties":{"vesselName":"KNOTTY GIRL"}},{"type":"Feature","geometry":{"type":"Point","coordinates":[103.549041774,1.23927820391]},"properties":{"vesselName":"THERESA HAINAN"}},{"type":"Feature","geometry":{"type":"Point","coordinates":[103.696908899,1.29862002494]},"properties":{"vesselName":"FORTITUDE"}},{"type":"Feature","geometry":{"type":"Point","coordinates":[103.889907225,1.09544336056]},"properties":{"vesselName":"VALENTINE"}},{"type":"Feature","geometry":{"type":"Point","coordinates":[103.738135557,1.21867002449]},"properties":{"vesselName":"MMA PRIDE"}},{"type":"Feature","geometry":{"type":"Point","coordinates":[103.833733893,1.46163336184]},"properties":{"vesselName":"OCEAN PILGRIM"}},{"type":"Feature","geometry":{"type":"Point","coordinates":[104.002709797,1.26527427982]},"properties":{"vesselName":"HUI GUO HAI"}},{"type":"Feature","geometry":{"type":"Point","coordinates":[103.913912226,1.03442503007]},"properties":{"vesselName":"MARQUIS DE PRIE"}},{"type":"Feature","geometry":{"type":"Point","coordinates":[104.095045564,1.18878669117]},"properties":{"vesselName":"SEA RAIDER II"}},{"type":"Feature","geometry":{"type":"Point","coordinates":[104.054941777,1.13405819652]},"properties":{"vesselName":"BATAMFAST 6"}},{"type":"Feature","geometry":{"type":"Point","coordinates":[104.095215565,1.18885002515]},"properties":{"vesselName":"SEA FLYTE"}},{"type":"Feature","geometry":{"type":"Point","coordinates":[104.009182869,1.26571193079]},"properties":{"vesselName":"GOLDEN RAIDER"}},{"type":"Feature","geometry":{"type":"Point","coordinates":[103.909027228,1.1296316913]},"properties":{"vesselName":"BAHARI 20"}},{"type":"Feature","geometry":{"type":"Point","coordinates":[103.643147231,1.27201169258]},"properties":{"vesselName":"INFINITI FORTIS"}},{"type":"Feature","geometry":{"type":"Point","coordinates":[103.984686883,1.30896298502]},"properties":{"vesselName":"UNITY OF MAJESTIC"}},{"type":"Feature","geometry":{"type":"Point","coordinates":[103.308633894,1.38097169166]},"properties":{"vesselName":"SEA SHELL"}},{"type":"Feature","geometry":{"type":"Point","coordinates":[103.756063894,1.30168057463]},"properties":{"vesselName":"MATAHARI WAN"}},{"type":"Feature","geometry":{"type":"Point","coordinates":[104.703054824,1.61461460104]},"properties":{"vesselName":"GUO HAI LIAN 655"}},{"type":"Feature","geometry":{"type":"Point","coordinates":[103.677378886,1.20047502488]},"properties":{"vesselName":"PAROS"}},{"type":"Feature","geometry":{"type":"Point","coordinates":[103.689825558,1.24675502638]},"properties":{"vesselName":"NAVE ARIADNE"}},{"type":"Feature","geometry":{"type":"Point","coordinates":[104.638377609,1.83716597279]},"properties":{"vesselName":"FJ VIOLA"}},{"type":"Feature","geometry":{"type":"Point","coordinates":[104.15343056,1.31527669031]},"properties":{"vesselName":"PILOT SRI PERKASA 01"}},{"type":"Feature","geometry":{"type":"Point","coordinates":[104.227854955,1.32655258156]},"properties":{"vesselName":"PILOT SRI PERKASA 03"}},{"type":"Feature","geometry":{"type":"Point","coordinates":[103.902826323,1.43414702292]},"properties":{"vesselName":"PILOT SRI PERKASA 05"}},{"type":"Feature","geometry":{"type":"Point","coordinates":[104.711992925,1.7211147766]},"properties":{"vesselName":"PACKARD"}},{"type":"Feature","geometry":{"type":"Point","coordinates":[104.736985043,1.71199827295]},"properties":{"vesselName":"CLOVIS"}},{"type":"Feature","geometry":{"type":"Point","coordinates":[103.22712132,1.35232852258]},"properties":{"vesselName":"ELLA VICTORIA"}},{"type":"Feature","geometry":{"type":"Point","coordinates":[104.854770564,1.69987502119]},"properties":{"vesselName":"LA BALENA"}},{"type":"Feature","geometry":{"type":"Point","coordinates":[104.058650558,1.30740002603]},"properties":{"vesselName":"JANA"}},{"type":"Feature","geometry":{"type":"Point","coordinates":[103.715012229,1.30659335861]},"properties":{"vesselName":"HK TUG 9"}},{"type":"Feature","geometry":{"type":"Point","coordinates":[103.89388312,1.22563675283]},"properties":{"vesselName":"UHL FUSION"}},{"type":"Feature","geometry":{"type":"Point","coordinates":[103.457037526,1.16720504296]},"properties":{"vesselName":"LL LAMBORGHINII"}},{"type":"Feature","geometry":{"type":"Point","coordinates":[103.897593894,1.07800336382]},"properties":{"vesselName":"CAPITOL T2002"}},{"type":"Feature","geometry":{"type":"Point","coordinates":[103.77469389,1.27424669272]},"properties":{"vesselName":"TRITON"}},{"type":"Feature","geometry":{"type":"Point","coordinates":[103.365175551,1.13377002626]},"properties":{"vesselName":"CAHAYA PERKASA"}},{"type":"Feature","geometry":{"type":"Point","coordinates":[103.721192223,1.29941335831]},"properties":{"vesselName":"YONG AN"}},{"type":"Feature","geometry":{"type":"Point","coordinates":[103.675065561,1.29484002514]},"properties":{"vesselName":"SKANDI EMERALD"}},{"type":"Feature","geometry":{"type":"Point","coordinates":[103.908603895,1.43296336657]},"properties":{"vesselName":"CSE BRAVERY EXPRESS"}},{"type":"Feature","geometry":{"type":"Point","coordinates":[103.970040559,1.15176467942]},"properties":{"vesselName":"CAPRICORN 80"}},{"type":"Feature","geometry":{"type":"Point","coordinates":[103.957877222,1.18797669262]},"properties":{"vesselName":"NORTH MOON"}},{"type":"Feature","geometry":{"type":"Point","coordinates":[103.996838895,1.15324669536]},"properties":{"vesselName":"HORIZON 9"}},{"type":"Feature","geometry":{"type":"Point","coordinates":[103.995333889,1.15990002221]},"properties":{"vesselName":"REGENT LIBRA"}},{"type":"Feature","geometry":{"type":"Point","coordinates":[103.808700558,1.23571669336]},"properties":{"vesselName":"BTS FABULOUS"}},{"type":"Feature","geometry":{"type":"Point","coordinates":[103.93853389,1.26530502586]},"properties":{"vesselName":"PACIFIC PROSPERITY"}},{"type":"Feature","geometry":{"type":"Point","coordinates":[103.598710261,1.06250882904]},"properties":{"vesselName":"BAHARI 6"}},{"type":"Feature","geometry":{"type":"Point","coordinates":[103.800217224,1.23191669306]},"properties":{"vesselName":"TASCO SAKORN"}},{"type":"Feature","geometry":{"type":"Point","coordinates":[103.743083637,1.28271079409]},"properties":{"vesselName":"SINAR SULAWESI"}},{"type":"Feature","geometry":{"type":"Point","coordinates":[104.544217207,1.2090215787]},"properties":{"vesselName":"STAR 9"}},{"type":"Feature","geometry":{"type":"Point","coordinates":[104.826607197,1.61539503764]},"properties":{"vesselName":"BOKA TIAMAT"}},{"type":"Feature","geometry":{"type":"Point","coordinates":[104.668336371,1.74708666628]},"properties":{"vesselName":"OCEANIA"}},{"type":"Feature","geometry":{"type":"Point","coordinates":[103.820160559,1.26271502576]},"properties":{"vesselName":"HORIZON 6"}},{"type":"Feature","geometry":{"type":"Point","coordinates":[103.61980722,1.16611002721]},"properties":{"vesselName":"ORLEANS HAWK"}},{"type":"Feature","geometry":{"type":"Point","coordinates":[104.174298906,1.3062966916]},"properties":{"vesselName":"JAHAM"}},{"type":"Feature","geometry":{"type":"Point","coordinates":[103.742327223,1.18904502469]},"properties":{"vesselName":"MAYA COSULICH"}},{"type":"Feature","geometry":{"type":"Point","coordinates":[103.448175429,1.16503592863]},"properties":{"vesselName":"GREATSHIP MANISHA"}},{"type":"Feature","geometry":{"type":"Point","coordinates":[103.641735895,1.22307428749]},"properties":{"vesselName":"PHOENIX"}},{"type":"Feature","geometry":{"type":"Point","coordinates":[104.157612236,1.30579835824]},"properties":{"vesselName":"SRIWANGI"}},{"type":"Feature","geometry":{"type":"Point","coordinates":[103.701367231,1.25173669265]},"properties":{"vesselName":"ESTEEM SANGO"}},{"type":"Feature","geometry":{"type":"Point","coordinates":[104.798637228,1.59171168894]},"properties":{"vesselName":"DENSA PUMA"}},{"type":"Feature","geometry":{"type":"Point","coordinates":[103.919750558,1.43110002897]},"properties":{"vesselName":"TAN BINH 256"}},{"type":"Feature","geometry":{"type":"Point","coordinates":[103.963883891,1.00557002111]},"properties":{"vesselName":"MP KESATRIA"}},{"type":"Feature","geometry":{"type":"Point","coordinates":[104.131052233,1.31972835908]},"properties":{"vesselName":"VS LEIA"}},{"type":"Feature","geometry":{"type":"Point","coordinates":[103.889847506,1.26773279049]},"properties":{"vesselName":"BASSILEVOUSA"}},{"type":"Feature","geometry":{"type":"Point","coordinates":[103.682593889,1.30323502631]},"properties":{"vesselName":"LION KIMTRANS TB 5"}},{"type":"Feature","geometry":{"type":"Point","coordinates":[104.44476098,1.39102359625]},"properties":{"vesselName":"CAPE FORBY"}},{"type":"Feature","geometry":{"type":"Point","coordinates":[104.704067208,1.76030002641]},"properties":{"vesselName":"GOLDEN MARINE"}},{"type":"Feature","geometry":{"type":"Point","coordinates":[103.634383895,1.34308669245]},"properties":{"vesselName":"NAGA"}},{"type":"Feature","geometry":{"type":"Point","coordinates":[104.415356897,1.58986619511]},"properties":{"vesselName":"SINARAN AMAN"}},{"type":"Feature","geometry":{"type":"Point","coordinates":[104.524543743,1.47654621688]},"properties":{"vesselName":"DIMITRIS A"}},{"type":"Feature","geometry":{"type":"Point","coordinates":[103.776458895,1.18104669175]},"properties":{"vesselName":"SHAGRA"}},{"type":"Feature","geometry":{"type":"Point","coordinates":[103.77003389,1.23604169208]},"properties":{"vesselName":"HAFNIA ANE"}},{"type":"Feature","geometry":{"type":"Point","coordinates":[103.801620752,1.24278832909]},"properties":{"vesselName":"LT BERYL"}},{"type":"Feature","geometry":{"type":"Point","coordinates":[103.687400551,1.29714335813]},"properties":{"vesselName":"SONGA HAWK"}},{"type":"Feature","geometry":{"type":"Point","coordinates":[103.930402227,1.07946170086]},"properties":{"vesselName":"HERON SPIRIT"}},{"type":"Feature","geometry":{"type":"Point","coordinates":[103.804223007,1.24206527464]},"properties":{"vesselName":"BTS WINTER"}},{"type":"Feature","geometry":{"type":"Point","coordinates":[103.674650558,1.29343002616]},"properties":{"vesselName":"ANGEL NO 2"}},{"type":"Feature","geometry":{"type":"Point","coordinates":[103.68723223,1.23356002594]},"properties":{"vesselName":"PORTINARI"}},{"type":"Feature","geometry":{"type":"Point","coordinates":[103.840492226,1.24215169254]},"properties":{"vesselName":"SERENITAS"}},{"type":"Feature","geometry":{"type":"Point","coordinates":[103.65347222,1.30059669256]},"properties":{"vesselName":"LAKAM HA"}},{"type":"Feature","geometry":{"type":"Point","coordinates":[103.91019513,1.24480219719]},"properties":{"vesselName":"SEAWAYS KILIMANJARO"}},{"type":"Feature","geometry":{"type":"Point","coordinates":[103.39455113,1.2533214138]},"properties":{"vesselName":"GOLDEN MYRTALIA"}},{"type":"Feature","geometry":{"type":"Point","coordinates":[103.811663895,1.26611002581]},"properties":{"vesselName":"UNIKIK 2 0"}},{"type":"Feature","geometry":{"type":"Point","coordinates":[104.707471912,1.64775415488]},"properties":{"vesselName":"SEA QUEST"}},{"type":"Feature","geometry":{"type":"Point","coordinates":[104.178828883,0.731816680972]},"properties":{"vesselName":"J F J DE NUL"}},{"type":"Feature","geometry":{"type":"Point","coordinates":[103.82288056,1.4618283657]},"properties":{"vesselName":"AL SAID"}},{"type":"Feature","geometry":{"type":"Point","coordinates":[104.008798251,1.38941435859]},"properties":{"vesselName":"INTERASIA TRANSFORM"}},{"type":"Feature","geometry":{"type":"Point","coordinates":[104.794729728,1.68668322462]},"properties":{"vesselName":"MARILOULA"}},{"type":"Feature","geometry":{"type":"Point","coordinates":[103.939780383,1.22588661874]},"properties":{"vesselName":"SC GUOJI"}},{"type":"Feature","geometry":{"type":"Point","coordinates":[103.841585559,1.24653835978]},"properties":{"vesselName":"WISTERIA"}},{"type":"Feature","geometry":{"type":"Point","coordinates":[103.655617772,1.30897498912]},"properties":{"vesselName":"YEW CHOON 8"}},{"type":"Feature","geometry":{"type":"Point","coordinates":[103.841103893,1.24496169156]},"properties":{"vesselName":"EAGLE"}},{"type":"Feature","geometry":{"type":"Point","coordinates":[103.785350559,1.27087669235]},"properties":{"vesselName":"APL JEDDAH"}},{"type":"Feature","geometry":{"type":"Point","coordinates":[103.897768893,1.09832168935]},"properties":{"vesselName":"SOUTHERN CETACEA"}},{"type":"Feature","geometry":{"type":"Point","coordinates":[104.531380821,1.99669204242]},"properties":{"vesselName":"KOOL BLIZZARD"}},{"type":"Feature","geometry":{"type":"Point","coordinates":[104.087180557,1.34240835783]},"properties":{"vesselName":"GO EXPLORER"}},{"type":"Feature","geometry":{"type":"Point","coordinates":[103.821402482,1.18517620743]},"properties":{"vesselName":"ITG UMING 1"}},{"type":"Feature","geometry":{"type":"Point","coordinates":[103.753092186,1.17000946667]},"properties":{"vesselName":"ARDMORE ENTERPRISE"}},{"type":"Feature","geometry":{"type":"Point","coordinates":[103.75903647,1.17587188323]},"properties":{"vesselName":"CLEAN PLANET"}},{"type":"Feature","geometry":{"type":"Point","coordinates":[103.657975561,1.25586502532]},"properties":{"vesselName":"STI MADISON"}},{"type":"Feature","geometry":{"type":"Point","coordinates":[103.557358306,1.33090246483]},"properties":{"vesselName":"ALAF PTP DUA"}},{"type":"Feature","geometry":{"type":"Point","coordinates":[104.616311799,1.61388188888]},"properties":{"vesselName":"LAN BAO HAI"}},{"type":"Feature","geometry":{"type":"Point","coordinates":[104.649917224,1.68411667595]},"properties":{"vesselName":"NIGH"}},{"type":"Feature","geometry":{"type":"Point","coordinates":[103.479588015,1.25310449555]},"properties":{"vesselName":"C S PIONEER"}},{"type":"Feature","geometry":{"type":"Point","coordinates":[103.80048952,1.2265755907]},"properties":{"vesselName":"UOG CONSTANTINOS G"}},{"type":"Feature","geometry":{"type":"Point","coordinates":[103.760073894,1.29523002534]},"properties":{"vesselName":"SAMAYA"}},{"type":"Feature","geometry":{"type":"Point","coordinates":[103.78174556,1.27551669272]},"properties":{"vesselName":"REN JIAN 15"}},{"type":"Feature","geometry":{"type":"Point","coordinates":[103.607985554,1.24998002619]},"properties":{"vesselName":"WEST CAPELLA"}},{"type":"Feature","geometry":{"type":"Point","coordinates":[104.12839056,1.30074335998]},"properties":{"vesselName":"STI OSCEOLA"}},{"type":"Feature","geometry":{"type":"Point","coordinates":[104.995113908,1.49860001882]},"properties":{"vesselName":"MAERSK CAPE COAST"}},{"type":"Feature","geometry":{"type":"Point","coordinates":[103.921981949,1.41859494887]},"properties":{"vesselName":"AL SHAFFIAH"}},{"type":"Feature","geometry":{"type":"Point","coordinates":[104.22804092,1.3266240704]},"properties":{"vesselName":"FUJI"}},{"type":"Feature","geometry":{"type":"Point","coordinates":[104.013328134,1.26752521709]},"properties":{"vesselName":"SFL TIGER"}},{"type":"Feature","geometry":{"type":"Point","coordinates":[103.432567213,1.26315002586]},"properties":{"vesselName":"CS INNOVATION"}},{"type":"Feature","geometry":{"type":"Point","coordinates":[103.967501864,1.27415186167]},"properties":{"vesselName":"SEAWAYS CAPE HENRY"}},{"type":"Feature","geometry":{"type":"Point","coordinates":[103.897480561,1.07789501832]},"properties":{"vesselName":"1000 01"}},{"type":"Feature","geometry":{"type":"Point","coordinates":[104.374159805,1.36710863123]},"properties":{"vesselName":"SEAWAYS LIBERTY"}},{"type":"Feature","geometry":{"type":"Point","coordinates":[103.63034061,1.22015009129]},"properties":{"vesselName":"VASCO DA GAMA"}},{"type":"Feature","geometry":{"type":"Point","coordinates":[103.903827225,1.06846168697]},"properties":{"vesselName":"EXPRESS 58"}},{"type":"Feature","geometry":{"type":"Point","coordinates":[103.746836106,1.18578712031]},"properties":{"vesselName":"EAGLE ASIA 10"}},{"type":"Feature","geometry":{"type":"Point","coordinates":[104.098398886,1.32730002735]},"properties":{"vesselName":"IRIS"}},{"type":"Feature","geometry":{"type":"Point","coordinates":[103.824177784,1.16971341213]},"properties":{"vesselName":"SILVER MILLIE"}},{"type":"Feature","geometry":{"type":"Point","coordinates":[103.438342225,1.27741085913]},"properties":{"vesselName":"CS DEVELOPMENT"}},{"type":"Feature","geometry":{"type":"Point","coordinates":[104.121612223,1.30503002415]},"properties":{"vesselName":"RAWAN"}},{"type":"Feature","geometry":{"type":"Point","coordinates":[104.002101899,1.29764695359]},"properties":{"vesselName":"MTM AMAZON"}},{"type":"Feature","geometry":{"type":"Point","coordinates":[103.410872227,1.29398335937]},"properties":{"vesselName":"SEA HORIZON"}},{"type":"Feature","geometry":{"type":"Point","coordinates":[104.347044705,1.33572449204]},"properties":{"vesselName":"PACIFIC NAFSIKA"}},{"type":"Feature","geometry":{"type":"Point","coordinates":[103.97589968,1.24709350836]},"properties":{"vesselName":"PROTOSTAR"}},{"type":"Feature","geometry":{"type":"Point","coordinates":[103.782233892,1.26559835913]},"properties":{"vesselName":"CMA CGM CAIMEP"}},{"type":"Feature","geometry":{"type":"Point","coordinates":[103.444004133,1.2701997697]},"properties":{"vesselName":"CS PROSPERITY"}},{"type":"Feature","geometry":{"type":"Point","coordinates":[103.886082225,1.2610833593]},"properties":{"vesselName":"MANTA ASLI"}},{"type":"Feature","geometry":{"type":"Point","coordinates":[103.955787226,1.28557169198]},"properties":{"vesselName":"MONTANA I"}},{"type":"Feature","geometry":{"type":"Point","coordinates":[103.927262134,1.1772288548]},"properties":{"vesselName":"HORIZON 7"}},{"type":"Feature","geometry":{"type":"Point","coordinates":[104.142855562,1.30263169304]},"properties":{"vesselName":"PACIFIC JULIA"}},{"type":"Feature","geometry":{"type":"Point","coordinates":[103.929685561,1.15903336335]},"properties":{"vesselName":"ERAWAN 1"}},{"type":"Feature","geometry":{"type":"Point","coordinates":[103.933053759,1.27165529724]},"properties":{"vesselName":"GOLDEN CIRRUS"}},{"type":"Feature","geometry":{"type":"Point","coordinates":[103.899247239,1.2624862099]},"properties":{"vesselName":"TAN BINH 345"}},{"type":"Feature","geometry":{"type":"Point","coordinates":[104.009322223,1.43718835542]},"properties":{"vesselName":"MAERSK TAMPA"}},{"type":"Feature","geometry":{"type":"Point","coordinates":[103.718500562,1.30346669201]},"properties":{"vesselName":"SEAGULL DIAMOND"}},{"type":"Feature","geometry":{"type":"Point","coordinates":[103.643428888,1.26905169258]},"properties":{"vesselName":"BOKA WINGER"}},{"type":"Feature","geometry":{"type":"Point","coordinates":[103.835705559,1.47563336365]},"properties":{"vesselName":"YTC TUG 13"}},{"type":"Feature","geometry":{"type":"Point","coordinates":[103.794381893,1.23960716865]},"properties":{"vesselName":"JANESIA ASPHALT V"}},{"type":"Feature","geometry":{"type":"Point","coordinates":[104.654279917,1.56242647781]},"properties":{"vesselName":"NAVIOS SUMMER"}},{"type":"Feature","geometry":{"type":"Point","coordinates":[103.964090379,1.28915077748]},"properties":{"vesselName":"UOG ANDROS"}},{"type":"Feature","geometry":{"type":"Point","coordinates":[104.18655055,1.32319169233]},"properties":{"vesselName":"GUSTAVIA S"}},{"type":"Feature","geometry":{"type":"Point","coordinates":[103.723947225,1.16075835808]},"properties":{"vesselName":"PROTEUS BOHEMIA"}},{"type":"Feature","geometry":{"type":"Point","coordinates":[104.200457147,1.28319380889]},"properties":{"vesselName":"CASTOR"}},{"type":"Feature","geometry":{"type":"Point","coordinates":[104.6246106,1.47910769395]},"properties":{"vesselName":"PETRUS"}},{"type":"Feature","geometry":{"type":"Point","coordinates":[103.945894013,1.26359910415]},"properties":{"vesselName":"JOLLY RICHIE"}},{"type":"Feature","geometry":{"type":"Point","coordinates":[103.701470564,1.18106669218]},"properties":{"vesselName":"STOLT VIKING"}},{"type":"Feature","geometry":{"type":"Point","coordinates":[103.967058897,1.19218835494]},"properties":{"vesselName":"NORTH OCEAN"}},{"type":"Feature","geometry":{"type":"Point","coordinates":[103.890578588,1.23551541268]},"properties":{"vesselName":"SEA MARANHAO"}},{"type":"Feature","geometry":{"type":"Point","coordinates":[103.681828885,1.22855669051]},"properties":{"vesselName":"PLATA WEST"}},{"type":"Feature","geometry":{"type":"Point","coordinates":[104.320087241,1.1609600301]},"properties":{"vesselName":"WAN SENDARI"}},{"type":"Feature","geometry":{"type":"Point","coordinates":[103.823347407,1.21832594765]},"properties":{"vesselName":"AMYLA"}},{"type":"Feature","geometry":{"type":"Point","coordinates":[103.957517226,1.2684000258]},"properties":{"vesselName":"ORE ITALIA"}},{"type":"Feature","geometry":{"type":"Point","coordinates":[103.895300561,1.07906670025]},"properties":{"vesselName":"DUKE I"}},{"type":"Feature","geometry":{"type":"Point","coordinates":[103.897749235,1.24133614171]},"properties":{"vesselName":"KALLIOPI"}},{"type":"Feature","geometry":{"type":"Point","coordinates":[103.93566723,1.28041835948]},"properties":{"vesselName":"LORD BYRON"}},{"type":"Feature","geometry":{"type":"Point","coordinates":[104.569516713,1.83452257324]},"properties":{"vesselName":"BRICKELL"}},{"type":"Feature","geometry":{"type":"Point","coordinates":[103.540702232,1.35759169688]},"properties":{"vesselName":"VS REMLIN"}},{"type":"Feature","geometry":{"type":"Point","coordinates":[103.944849853,1.27984690838]},"properties":{"vesselName":"FRONTIER KOTOBUKI"}},{"type":"Feature","geometry":{"type":"Point","coordinates":[103.71211223,1.16914502804]},"properties":{"vesselName":"BOW FLORA"}},{"type":"Feature","geometry":{"type":"Point","coordinates":[103.689242228,1.29738002573]},"properties":{"vesselName":"DING HENG 43"}},{"type":"Feature","geometry":{"type":"Point","coordinates":[103.775783894,1.27625002598]},"properties":{"vesselName":"GOOD PROSPECT"}},{"type":"Feature","geometry":{"type":"Point","coordinates":[103.675433892,1.29381669246]},"properties":{"vesselName":"ORIENT ADVENTURER"}},{"type":"Feature","geometry":{"type":"Point","coordinates":[103.695925555,1.18850002575]},"properties":{"vesselName":"NO 2 OCEAN PIONEER"}},{"type":"Feature","geometry":{"type":"Point","coordinates":[104.087321001,1.3065378874]},"properties":{"vesselName":"NEW DREAM"}},{"type":"Feature","geometry":{"type":"Point","coordinates":[104.782543539,1.65611882171]},"properties":{"vesselName":"TRANSCENDEN CRYSTAL"}},{"type":"Feature","geometry":{"type":"Point","coordinates":[103.988610558,1.31226502498]},"properties":{"vesselName":"WAN SERI BENI"}},{"type":"Feature","geometry":{"type":"Point","coordinates":[104.250777215,1.84720501608]},"properties":{"vesselName":"NIKA RUBY"}},{"type":"Feature","geometry":{"type":"Point","coordinates":[104.101514795,1.33153936853]},"properties":{"vesselName":"PHUC THUAN 36"}},{"type":"Feature","geometry":{"type":"Point","coordinates":[103.881945561,1.24288502484]},"properties":{"vesselName":"YASA SCORPION"}},{"type":"Feature","geometry":{"type":"Point","coordinates":[103.919257225,1.26322669256]},"properties":{"vesselName":"PIS KERINCI"}},{"type":"Feature","geometry":{"type":"Point","coordinates":[103.886368483,1.22984006202]},"properties":{"vesselName":"MEGAMAS SWEET"}},{"type":"Feature","geometry":{"type":"Point","coordinates":[103.959812877,1.42240440413]},"properties":{"vesselName":"OCEANNA 7"}},{"type":"Feature","geometry":{"type":"Point","coordinates":[103.887358893,1.42861502642]},"properties":{"vesselName":"KN FOREST"}},{"type":"Feature","geometry":{"type":"Point","coordinates":[103.920867227,1.28405002535]},"properties":{"vesselName":"ROSEWOOD"}},{"type":"Feature","geometry":{"type":"Point","coordinates":[103.996718896,1.16735335657]},"properties":{"vesselName":"CAPRICORN 120"}},{"type":"Feature","geometry":{"type":"Point","coordinates":[103.827995559,1.47019002177]},"properties":{"vesselName":"HAIYANGSHIYOU 278"}},{"type":"Feature","geometry":{"type":"Point","coordinates":[103.693800564,1.29341669285]},"properties":{"vesselName":"GINGA PIONEER"}},{"type":"Feature","geometry":{"type":"Point","coordinates":[103.94967572,1.17375587488]},"properties":{"vesselName":"BERKAH 99"}},{"type":"Feature","geometry":{"type":"Point","coordinates":[104.358634381,1.3737259705]},"properties":{"vesselName":"DA RUN 31"}},{"type":"Feature","geometry":{"type":"Point","coordinates":[103.965145883,1.15546914508]},"properties":{"vesselName":"EL NINA SAMUDRA"}},{"type":"Feature","geometry":{"type":"Point","coordinates":[104.110900551,1.32660002487]},"properties":{"vesselName":"EPSILONGAS"}},{"type":"Feature","geometry":{"type":"Point","coordinates":[103.731768895,1.28404669264]},"properties":{"vesselName":"HAWKS PROGRESS"}},{"type":"Feature","geometry":{"type":"Point","coordinates":[103.869245559,1.24777162827]},"properties":{"vesselName":"CAPRICORN 110"}},{"type":"Feature","geometry":{"type":"Point","coordinates":[104.53579518,1.64348541895]},"properties":{"vesselName":"ILE DE RE"}},{"type":"Feature","geometry":{"type":"Point","coordinates":[104.049643898,1.29257502677]},"properties":{"vesselName":"STAR DRAGON"}},{"type":"Feature","geometry":{"type":"Point","coordinates":[103.826633033,1.47348171402]},"properties":{"vesselName":"OCEAN DRAGON 1"}},{"type":"Feature","geometry":{"type":"Point","coordinates":[104.011103897,1.44473336637]},"properties":{"vesselName":"MARIA MAJESTY"}},{"type":"Feature","geometry":{"type":"Point","coordinates":[103.87335801,1.25780639834]},"properties":{"vesselName":"MILKY WAY"}},{"type":"Feature","geometry":{"type":"Point","coordinates":[104.330586697,1.31415439278]},"properties":{"vesselName":"IRENES REWARD"}},{"type":"Feature","geometry":{"type":"Point","coordinates":[104.291879117,1.31490630398]},"properties":{"vesselName":"HAFNIA MYNA"}},{"type":"Feature","geometry":{"type":"Point","coordinates":[104.079089197,0.95294249781]},"properties":{"vesselName":"WHALE 3"}},{"type":"Feature","geometry":{"type":"Point","coordinates":[104.147948621,1.29637467736]},"properties":{"vesselName":"POSILLIPO"}},{"type":"Feature","geometry":{"type":"Point","coordinates":[104.261273873,1.30371170152]},"properties":{"vesselName":"BINTANG LIBERTY 3"}},{"type":"Feature","geometry":{"type":"Point","coordinates":[103.927045556,1.20038094717]},"properties":{"vesselName":"MEGA DAYA 25"}},{"type":"Feature","geometry":{"type":"Point","coordinates":[103.757970557,1.29920002629]},"properties":{"vesselName":"419"}},{"type":"Feature","geometry":{"type":"Point","coordinates":[104.086414972,1.27330917936]},"properties":{"vesselName":"RG RHEA"}},{"type":"Feature","geometry":{"type":"Point","coordinates":[103.43675006,0.986374733906]},"properties":{"vesselName":"MV DUMAI LINE 8"}},{"type":"Feature","geometry":{"type":"Point","coordinates":[103.916307228,1.25273669278]},"properties":{"vesselName":"KMARIN RESPECT"}},{"type":"Feature","geometry":{"type":"Point","coordinates":[103.982727224,1.19273502667]},"properties":{"vesselName":"LAY VESSEL 108"}},{"type":"Feature","geometry":{"type":"Point","coordinates":[103.741213776,1.2695313825]},"properties":{"vesselName":"BFL SCORPIO"}},{"type":"Feature","geometry":{"type":"Point","coordinates":[103.44088557,1.32540335772]},"properties":{"vesselName":"OCEAN DRAGON 2"}},{"type":"Feature","geometry":{"type":"Point","coordinates":[103.908732228,1.05225668456]},"properties":{"vesselName":"MEGA DAYA 33"}},{"type":"Feature","geometry":{"type":"Point","coordinates":[103.669567227,1.30368335814]},"properties":{"vesselName":"PIONEER 3702"}},{"type":"Feature","geometry":{"type":"Point","coordinates":[103.717470562,1.29943335819]},"properties":{"vesselName":"XIN DA ZHONG"}},{"type":"Feature","geometry":{"type":"Point","coordinates":[104.116603898,1.31300335697]},"properties":{"vesselName":"ZOE SCHULTE"}},{"type":"Feature","geometry":{"type":"Point","coordinates":[103.71378723,1.29717335937]},"properties":{"vesselName":"SEAWAYS GRACE"}},{"type":"Feature","geometry":{"type":"Point","coordinates":[103.898600559,1.0984400206]},"properties":{"vesselName":"NORTH SILVER"}},{"type":"Feature","geometry":{"type":"Point","coordinates":[104.05934564,1.1638338094]},"properties":{"vesselName":"PINTAS LUXURY 1"}},{"type":"Feature","geometry":{"type":"Point","coordinates":[104.138173901,1.06388003087]},"properties":{"vesselName":"PIONEER SILVER"}},{"type":"Feature","geometry":{"type":"Point","coordinates":[104.679342543,1.77954664439]},"properties":{"vesselName":"BELAIT CSS 1"}},{"type":"Feature","geometry":{"type":"Point","coordinates":[103.67568722,1.29408169251]},"properties":{"vesselName":"BOURBON EVOLUTION 810"}},{"type":"Feature","geometry":{"type":"Point","coordinates":[103.916010802,1.21068928803]},"properties":{"vesselName":"ORA BHUM"}},{"type":"Feature","geometry":{"type":"Point","coordinates":[103.305102805,1.07423430981]},"properties":{"vesselName":"SEASONG"}},{"type":"Feature","geometry":{"type":"Point","coordinates":[103.890862336,1.25169093068]},"properties":{"vesselName":"S BOUND"}},{"type":"Feature","geometry":{"type":"Point","coordinates":[103.985827226,1.28555002618]},"properties":{"vesselName":"BONNY ISLAND"}},{"type":"Feature","geometry":{"type":"Point","coordinates":[103.905543894,1.259258359]},"properties":{"vesselName":"ST ANDREW I"}},{"type":"Feature","geometry":{"type":"Point","coordinates":[103.28429918,1.29518007136]},"properties":{"vesselName":"HUA LIN WAN"}},{"type":"Feature","geometry":{"type":"Point","coordinates":[104.120480552,1.0296600231]},"properties":{"vesselName":"SPO SWIFT"}},{"type":"Feature","geometry":{"type":"Point","coordinates":[103.976110561,1.15718502436]},"properties":{"vesselName":"AVATAR COURAGE"}},{"type":"Feature","geometry":{"type":"Point","coordinates":[103.297838887,1.38963835509]},"properties":{"vesselName":"GUO YUAN 20"}},{"type":"Feature","geometry":{"type":"Point","coordinates":[104.124052219,1.32350502721]},"properties":{"vesselName":"BBC FUJI"}},{"type":"Feature","geometry":{"type":"Point","coordinates":[104.13606241,1.31005013915]},"properties":{"vesselName":"MP MR TANKER 3"}},{"type":"Feature","geometry":{"type":"Point","coordinates":[104.006473901,1.29025835907]},"properties":{"vesselName":"YM PACIFICO"}},{"type":"Feature","geometry":{"type":"Point","coordinates":[104.183533899,1.09465003136]},"properties":{"vesselName":"HIGH STANDARD"}},{"type":"Feature","geometry":{"type":"Point","coordinates":[103.541378898,1.35498835639]},"properties":{"vesselName":"GATEWAY"}},{"type":"Feature","geometry":{"type":"Point","coordinates":[103.720693894,1.30161002607]},"properties":{"vesselName":"AFRICAN GROUSE"}},{"type":"Feature","geometry":{"type":"Point","coordinates":[104.313154651,1.31455276599]},"properties":{"vesselName":"PRATINCOLE PACIFIC"}},{"type":"Feature","geometry":{"type":"Point","coordinates":[104.032978897,1.28281669195]},"properties":{"vesselName":"STAR LADY"}},{"type":"Feature","geometry":{"type":"Point","coordinates":[103.442230493,1.17184944998]},"properties":{"vesselName":"CAPE AMANDA"}},{"type":"Feature","geometry":{"type":"Point","coordinates":[103.727062069,1.21823923319]},"properties":{"vesselName":"FUGRO MARINER"}},{"type":"Feature","geometry":{"type":"Point","coordinates":[103.940187227,1.16238335522]},"properties":{"vesselName":"HUA WEI 01"}},{"type":"Feature","geometry":{"type":"Point","coordinates":[104.260067434,1.29349956774]},"properties":{"vesselName":"MORNING CECILIE"}},{"type":"Feature","geometry":{"type":"Point","coordinates":[103.783807225,1.26848002578]},"properties":{"vesselName":"CMA CGM HYDRA"}},{"type":"Feature","geometry":{"type":"Point","coordinates":[103.804556247,1.23327660837]},"properties":{"vesselName":"MAERSK CRETE"}},{"type":"Feature","geometry":{"type":"Point","coordinates":[103.383160576,1.30879669252]},"properties":{"vesselName":"SLOMAN THETIS"}},{"type":"Feature","geometry":{"type":"Point","coordinates":[103.432453901,0.989820022139]},"properties":{"vesselName":"DUMAI LINE 9"}},{"type":"Feature","geometry":{"type":"Point","coordinates":[103.641115567,1.27163002574]},"properties":{"vesselName":"SIEM PILOT"}},{"type":"Feature","geometry":{"type":"Point","coordinates":[104.107508892,1.32318835708]},"properties":{"vesselName":"MARIGOLD"}},{"type":"Feature","geometry":{"type":"Point","coordinates":[103.635103884,1.34403169565]},"properties":{"vesselName":"NAUTILUS 55"}},